[
    {
        "公司名稱": "全聯實業股份有限公司",
        "分公司名稱": "龍山捷運分公司",
        "address": "萬華區富福里和平西路三段120號",
        "address_for_geocode": "台北市萬華區富福里和平西路三段120號",
        "latitude": 25.035011,
        "longitude": 121.499812
    },
    {
        "公司名稱": "全聯實業股份有限公司",
        "分公司名稱": "內湖康寧分公司",
        "address": "內湖區安湖里東湖路1號",
        "address_for_geocode": "台北市內湖區安湖里東湖路1號",
        "latitude": 25.069101,
        "longitude": 121.612366
    },
    {
        "公司名稱": "全聯實業股份有限公司",
        "分公司名稱": "北投捷運分公司",
        "address": "北投路2段11號",
        "address_for_geocode": "台北市北投路2段11號",
        "latitude": 25.130672,
        "longitude": 121.498724
    },
    {
        "公司名稱": "全聯實業股份有限公司",
        "分公司名稱": "內湖港墘分公司",
        "address": "內湖區港墘路127巷10號",
        "address_for_geocode": "台北市內湖區港墘路127巷10號",
        "latitude": 25.077872,
        "longitude": 121.576916
    },
    {
        "公司名稱": "全聯實業股份有限公司",
        "分公司名稱": "中山吉林分公司",
        "address": "中山區吉林路213號",
        "address_for_geocode": "台北市中山區吉林路213號",
        "latitude": 25.060456,
        "longitude": 121.530407
    },
    {
        "公司名稱": "全聯實業股份有限公司",
        "分公司名稱": "中山松江分公司",
        "address": "中山區松江路318號",
        "address_for_geocode": "台北市中山區松江路318號",
        "latitude": 25.060672,
        "longitude": 121.532888
    },
    {
        "公司名稱": "全聯實業股份有限公司",
        "分公司名稱": "內湖德安分公司",
        "address": "內湖區成功路4段30巷40號",
        "address_for_geocode": "台北市內湖區成功路4段30巷40號",
        "latitude": 25.082967,
        "longitude": 121.59237
    },
    {
        "公司名稱": "全聯實業股份有限公司",
        "分公司名稱": "文山福興分公司",
        "address": "文山區福興路62號",
        "address_for_geocode": "台北市文山區福興路62號",
        "latitude": 25.003764,
        "longitude": 121.55025
    },
    {
        "公司名稱": "全聯實業股份有限公司",
        "分公司名稱": "中正牯嶺分公司",
        "address": "中正區板溪里和平西路一段52號",
        "address_for_geocode": "台北市中正區板溪里和平西路一段52號",
        "latitude": 25.026399,
        "longitude": 121.519671
    },
    {
        "公司名稱": "全聯實業股份有限公司",
        "分公司名稱": "內湖南湖分公司",
        "address": "內湖區安湖里東湖路33巷19號",
        "address_for_geocode": "台北市內湖區安湖里東湖路33巷19號",
        "latitude": 25.069768,
        "longitude": 121.613275
    },
    {
        "公司名稱": "全聯實業股份有限公司",
        "分公司名稱": "文山辛亥分公司",
        "address": "文山區興業里興隆路2段252號",
        "address_for_geocode": "台北市文山區興業里興隆路2段252號",
        "latitude": 25.000683,
        "longitude": 121.554258
    },
    {
        "公司名稱": "全聯實業股份有限公司",
        "分公司名稱": "大安樂利分公司",
        "address": "大安區樂利路89號",
        "address_for_geocode": "台北市大安區樂利路89號",
        "latitude": 25.025692,
        "longitude": 121.552211
    },
    {
        "公司名稱": "全聯實業股份有限公司",
        "分公司名稱": "大安居安分公司",
        "address": "大安區安和路2段88號",
        "address_for_geocode": "台北市大安區安和路2段88號",
        "latitude": 25.028998,
        "longitude": 121.550485
    },
    {
        "公司名稱": "全聯實業股份有限公司",
        "分公司名稱": "北投行義分公司",
        "address": "北投區永欣里行義路10巷2號",
        "address_for_geocode": "台北市北投區永欣里行義路10巷2號",
        "latitude": 25.124284,
        "longitude": 121.526451
    },
    {
        "公司名稱": "全聯實業股份有限公司",
        "分公司名稱": "中山德惠分公司",
        "address": "中山區新喜里吉林路413號",
        "address_for_geocode": "台北市中山區新喜里吉林路413號",
        "latitude": 25.06642,
        "longitude": 121.530526
    },
    {
        "公司名稱": "全聯實業股份有限公司",
        "分公司名稱": "信義莊敬分公司",
        "address": "信義區莊敬路325巷58號",
        "address_for_geocode": "台北市信義區莊敬路325巷58號",
        "latitude": 25.028759,
        "longitude": 121.564881
    },
    {
        "公司名稱": "全聯實業股份有限公司",
        "分公司名稱": "松山三民分公司",
        "address": "松山區富泰里三民路108號",
        "address_for_geocode": "台北市松山區富泰里三民路108號",
        "latitude": 25.057546,
        "longitude": 121.563708
    },
    {
        "公司名稱": "全聯實業股份有限公司",
        "分公司名稱": "天母天玉分公司",
        "address": "士林區天玉里天母西路3號",
        "address_for_geocode": "台北市士林區天玉里天母西路3號",
        "latitude": 25.118981,
        "longitude": 121.529271
    },
    {
        "公司名稱": "全聯實業股份有限公司",
        "分公司名稱": "大安泰順分公司",
        "address": "大安區泰順街45號",
        "address_for_geocode": "台北市大安區泰順街45號",
        "latitude": 25.022667,
        "longitude": 121.531296
    },
    {
        "公司名稱": "全聯實業股份有限公司",
        "分公司名稱": "中山晴光分公司",
        "address": "中山區晴光里林森北路575-1號",
        "address_for_geocode": "台北市中山區晴光里林森北路575-1號",
        "latitude": 25.06513,
        "longitude": 121.525797
    },
    {
        "公司名稱": "全聯實業股份有限公司",
        "分公司名稱": "中山長春分公司",
        "address": "中山區長春路258巷6號",
        "address_for_geocode": "台北市中山區長春路258巷6號",
        "latitude": 25.054155,
        "longitude": 121.538918
    },
    {
        "公司名稱": "全聯實業股份有限公司",
        "分公司名稱": "信義松隆分公司",
        "address": "信義區松隆路125號",
        "address_for_geocode": "台北市信義區松隆路125號",
        "latitude": 25.046985,
        "longitude": 121.571874
    },
    {
        "公司名稱": "全聯實業股份有限公司",
        "分公司名稱": "內湖葫洲分公司",
        "address": "內湖區民權東路6段296巷20號",
        "address_for_geocode": "台北市內湖區民權東路6段296巷20號",
        "latitude": 25.072252,
        "longitude": 121.606126
    },
    {
        "公司名稱": "全聯實業股份有限公司",
        "分公司名稱": "北投吉利分公司",
        "address": "北投區吉利街125號",
        "address_for_geocode": "台北市北投區吉利街125號",
        "latitude": 25.118716,
        "longitude": 121.506737
    },
    {
        "公司名稱": "全聯實業股份有限公司",
        "分公司名稱": "中正南海分公司",
        "address": "中正區永昌里南海路100號",
        "address_for_geocode": "台北市中正區永昌里南海路100號",
        "latitude": 25.028164,
        "longitude": 121.508259
    },
    {
        "公司名稱": "全聯實業股份有限公司",
        "分公司名稱": "內湖文德分公司",
        "address": "內湖區文德路212號",
        "address_for_geocode": "台北市內湖區文德路212號",
        "latitude": 25.078321,
        "longitude": 121.584047
    },
    {
        "公司名稱": "全聯實業股份有限公司",
        "分公司名稱": "松山民有分公司",
        "address": "松山區民權東路三段140巷15號",
        "address_for_geocode": "台北市松山區民權東路三段140巷15號",
        "latitude": 25.060501,
        "longitude": 121.546742
    },
    {
        "公司名稱": "全聯實業股份有限公司",
        "分公司名稱": "大安民榮分公司",
        "address": "大安區仁愛路3段24巷12號",
        "address_for_geocode": "台北市大安區仁愛路3段24巷12號",
        "latitude": 25.035215,
        "longitude": 121.535833
    },
    {
        "公司名稱": "全聯實業股份有限公司",
        "分公司名稱": "士林蘭雅分公司",
        "address": "士林區蘭雅里德行東路109巷104號",
        "address_for_geocode": "台北市士林區蘭雅里德行東路109巷104號",
        "latitude": 25.110957,
        "longitude": 121.528857
    },
    {
        "公司名稱": "全聯實業股份有限公司",
        "分公司名稱": "中正同安分公司",
        "address": "中正區板溪里南昌路二段112號",
        "address_for_geocode": "台北市中正區板溪里南昌路二段112號",
        "latitude": 25.025838,
        "longitude": 121.522173
    },
    {
        "公司名稱": "全聯實業股份有限公司",
        "分公司名稱": "文山景美分公司",
        "address": "文山區景慶里羅斯福路六段218號",
        "address_for_geocode": "台北市文山區景慶里羅斯福路六段218號",
        "latitude": 24.992957,
        "longitude": 121.540634
    },
    {
        "公司名稱": "全聯實業股份有限公司",
        "分公司名稱": "天母中山北分公司",
        "address": "士林區天山里中山北路7段154巷6號",
        "address_for_geocode": "台北市士林區天山里中山北路7段154巷6號",
        "latitude": 25.123448,
        "longitude": 121.532947
    },
    {
        "公司名稱": "全聯實業股份有限公司",
        "分公司名稱": "內湖網球場分公司",
        "address": "內湖區寶湖里民權東路6段208號",
        "address_for_geocode": "台北市內湖區寶湖里民權東路6段208號",
        "latitude": 25.067638,
        "longitude": 121.596696
    },
    {
        "公司名稱": "全聯實業股份有限公司",
        "分公司名稱": "士林芝山分公司",
        "address": "士林區忠誠里忠誠路一段56號",
        "address_for_geocode": "台北市士林區忠誠里忠誠路一段56號",
        "latitude": 25.104701,
        "longitude": 121.527012
    },
    {
        "公司名稱": "全聯實業股份有限公司",
        "分公司名稱": "松山健康分公司",
        "address": "松山區自強里健康路243號",
        "address_for_geocode": "台北市松山區自強里健康路243號",
        "latitude": 25.054355,
        "longitude": 121.563302
    },
    {
        "公司名稱": "全聯實業股份有限公司",
        "分公司名稱": "數位服務分公司",
        "address": "中山區金泰里敬業四路33號",
        "address_for_geocode": "台北市中山區金泰里敬業四路33號",
        "latitude": 25.081043,
        "longitude": 121.558003
    },
    {
        "公司名稱": "全聯實業股份有限公司",
        "分公司名稱": "萬華西園分公司",
        "address": "萬華區西園路2段217號",
        "address_for_geocode": "台北市萬華區西園路2段217號",
        "latitude": 25.027066,
        "longitude": 121.494153
    },
    {
        "公司名稱": "全聯實業股份有限公司",
        "分公司名稱": "松山中崙分公司",
        "address": "松山區吉仁里八德路３段１０６巷１號",
        "address_for_geocode": "台北市松山區吉仁里八德路３段１０６巷１號",
        "latitude": 25.047663,
        "longitude": 121.553731
    },
    {
        "公司名稱": "全聯實業股份有限公司",
        "分公司名稱": "鵬程分公司",
        "address": "松山區健康路399號",
        "address_for_geocode": "台北市松山區健康路399號",
        "latitude": 25.054602,
        "longitude": 121.568859
    },
    {
        "公司名稱": "全聯實業股份有限公司",
        "分公司名稱": "中正華山分公司",
        "address": "中正區忠孝東路一段86號",
        "address_for_geocode": "台北市中正區忠孝東路一段86號",
        "latitude": 25.044333,
        "longitude": 121.524461
    },
    {
        "公司名稱": "全聯實業股份有限公司",
        "分公司名稱": "萬華龍山分公司",
        "address": "萬華區廣州街263號",
        "address_for_geocode": "台北市萬華區廣州街263號",
        "latitude": 25.036893,
        "longitude": 121.496519
    },
    {
        "公司名稱": "全聯實業股份有限公司",
        "分公司名稱": "三興分公司",
        "address": "信義區吳興街156巷6號",
        "address_for_geocode": "台北市信義區吳興街156巷6號",
        "latitude": 25.029014,
        "longitude": 121.561176
    },
    {
        "公司名稱": "全聯實業股份有限公司",
        "分公司名稱": "士林社子分公司",
        "address": "士林區社正路59號",
        "address_for_geocode": "台北市士林區社正路59號",
        "latitude": 25.088998,
        "longitude": 121.510093
    },
    {
        "公司名稱": "全聯實業股份有限公司",
        "分公司名稱": "中山南京分公司",
        "address": "中山區吉林路26巷34號",
        "address_for_geocode": "台北市中山區吉林路26巷34號",
        "latitude": 25.051383,
        "longitude": 121.52882
    },
    {
        "公司名稱": "全聯實業股份有限公司",
        "分公司名稱": "順興分公司",
        "address": "文山區興隆路4段143號",
        "address_for_geocode": "台北市文山區興隆路4段143號",
        "latitude": 24.985169,
        "longitude": 121.561634
    },
    {
        "公司名稱": "全聯實業股份有限公司",
        "分公司名稱": "大安敦南分公司",
        "address": "大安區忠孝東路4段126之1號",
        "address_for_geocode": "台北市大安區忠孝東路4段126之1號",
        "latitude": 25.041415,
        "longitude": 121.547411
    },
    {
        "公司名稱": "全聯實業股份有限公司",
        "分公司名稱": "信義林口分公司",
        "address": "信義區大道里林口街176號",
        "address_for_geocode": "台北市信義區大道里林口街176號",
        "latitude": 25.040634,
        "longitude": 121.580842
    },
    {
        "公司名稱": "全聯實業股份有限公司",
        "分公司名稱": "士林延平分公司",
        "address": "士林區延平北路5段238號",
        "address_for_geocode": "台北市士林區延平北路5段238號",
        "latitude": 25.084415,
        "longitude": 121.510004
    },
    {
        "公司名稱": "全聯實業股份有限公司",
        "分公司名稱": "士林大南分公司",
        "address": "士林區福中里福港街104號",
        "address_for_geocode": "台北市士林區福中里福港街104號",
        "latitude": 25.0888,
        "longitude": 121.518092
    },
    {
        "公司名稱": "全聯實業股份有限公司",
        "分公司名稱": "文山萬年分公司",
        "address": "文山區羅斯福路5段170巷41號",
        "address_for_geocode": "台北市文山區羅斯福路5段170巷41號",
        "latitude": 25.004683,
        "longitude": 121.536254
    },
    {
        "公司名稱": "全聯實業股份有限公司",
        "分公司名稱": "內湖文湖分公司",
        "address": "內湖區西安里文湖街31號",
        "address_for_geocode": "台北市內湖區西安里文湖街31號",
        "latitude": 25.086626,
        "longitude": 121.561235
    },
    {
        "公司名稱": "全聯實業股份有限公司",
        "分公司名稱": "北市和平分公司",
        "address": "大安區和平東路1段63號",
        "address_for_geocode": "台北市大安區和平東路1段63號",
        "latitude": 25.027107,
        "longitude": 121.524539
    },
    {
        "公司名稱": "全聯實業股份有限公司",
        "分公司名稱": "北市建國分公司",
        "address": "大安區建國南路2段123巷16號",
        "address_for_geocode": "台北市大安區建國南路2段123巷16號",
        "latitude": 25.029466,
        "longitude": 121.53916
    },
    {
        "公司名稱": "全聯實業股份有限公司",
        "分公司名稱": "萬華雙園分公司",
        "address": "萬華區興寧街2號",
        "address_for_geocode": "台北市萬華區興寧街2號",
        "latitude": 25.032284,
        "longitude": 121.502014
    },
    {
        "公司名稱": "全聯實業股份有限公司",
        "分公司名稱": "中山興安分公司",
        "address": "中山區朱馥里興安街55號",
        "address_for_geocode": "台北市中山區朱馥里興安街55號",
        "latitude": 25.056207,
        "longitude": 121.541887
    },
    {
        "公司名稱": "全聯實業股份有限公司",
        "分公司名稱": "大安延吉分公司",
        "address": "大安區市民大道4段190號",
        "address_for_geocode": "台北市大安區市民大道4段190號",
        "latitude": 25.044212,
        "longitude": 121.554273
    },
    {
        "公司名稱": "全聯實業股份有限公司",
        "分公司名稱": "忠順分公司",
        "address": "文山區忠順街2段22號",
        "address_for_geocode": "台北市文山區忠順街2段22號",
        "latitude": 24.984669,
        "longitude": 121.563164
    },
    {
        "公司名稱": "全聯實業股份有限公司",
        "分公司名稱": "中山雙連分公司",
        "address": "中山區集英里錦西街8號",
        "address_for_geocode": "台北市中山區集英里錦西街8號",
        "latitude": 25.060238,
        "longitude": 121.52171
    },
    {
        "公司名稱": "全聯實業股份有限公司",
        "分公司名稱": "文山木柵分公司",
        "address": "文山區木柵里木柵路3段41號",
        "address_for_geocode": "台北市文山區木柵里木柵路3段41號",
        "latitude": 24.988575,
        "longitude": 121.565836
    },
    {
        "公司名稱": "全聯實業股份有限公司",
        "分公司名稱": "內湖星雲分公司",
        "address": "內湖區清白里星雲街163號",
        "address_for_geocode": "台北市內湖區清白里星雲街163號",
        "latitude": 25.08126,
        "longitude": 121.596442
    },
    {
        "公司名稱": "全聯實業股份有限公司",
        "分公司名稱": "士林士東分公司",
        "address": "士林區天祿里士東路23號",
        "address_for_geocode": "台北市士林區天祿里士東路23號",
        "latitude": 25.111932,
        "longitude": 121.526994
    },
    {
        "公司名稱": "全聯實業股份有限公司",
        "分公司名稱": "信義松興分公司",
        "address": "信義區松隆路36號",
        "address_for_geocode": "台北市信義區松隆路36號",
        "latitude": 25.043394,
        "longitude": 121.567544
    },
    {
        "公司名稱": "全聯實業股份有限公司",
        "分公司名稱": "中正南昌分公司",
        "address": "中正區南昌路1段51巷1號",
        "address_for_geocode": "台北市中正區南昌路1段51巷1號",
        "latitude": 25.031439,
        "longitude": 121.517397
    },
    {
        "公司名稱": "全聯實業股份有限公司",
        "分公司名稱": "六合分公司",
        "address": "信義區松仁路240巷19號",
        "address_for_geocode": "台北市信義區松仁路240巷19號",
        "latitude": 25.024451,
        "longitude": 121.568794
    },
    {
        "公司名稱": "全聯實業股份有限公司",
        "分公司名稱": "南港中坡分公司",
        "address": "南港區中坡南路7號",
        "address_for_geocode": "台北市南港區中坡南路7號",
        "latitude": 25.043925,
        "longitude": 121.58241
    },
    {
        "公司名稱": "全聯實業股份有限公司",
        "分公司名稱": "內湖金龍分公司",
        "address": "內湖區金龍路215號",
        "address_for_geocode": "台北市內湖區金龍路215號",
        "latitude": 25.088151,
        "longitude": 121.587191
    },
    {
        "公司名稱": "全聯實業股份有限公司",
        "分公司名稱": "萬華西藏分公司",
        "address": "萬華區西藏路125巷9號",
        "address_for_geocode": "台北市萬華區西藏路125巷9號",
        "latitude": 25.028654,
        "longitude": 121.50236
    },
    {
        "公司名稱": "全聯實業股份有限公司",
        "分公司名稱": "大同民生西分公司",
        "address": "大同區朝陽里民生西路280號",
        "address_for_geocode": "台北市大同區朝陽里民生西路280號",
        "latitude": 25.056898,
        "longitude": 121.513009
    },
    {
        "公司名稱": "全聯實業股份有限公司",
        "分公司名稱": "萬華民和分公司",
        "address": "萬華區民和街103號",
        "address_for_geocode": "台北市萬華區民和街103號",
        "latitude": 25.025335,
        "longitude": 121.497489
    },
    {
        "公司名稱": "全聯實業股份有限公司",
        "分公司名稱": "北投復興崗分公司",
        "address": "北投區中央北路2段181號",
        "address_for_geocode": "台北市北投區中央北路2段181號",
        "latitude": 25.137818,
        "longitude": 121.49271
    },
    {
        "公司名稱": "全聯實業股份有限公司",
        "分公司名稱": "內湖民權分公司",
        "address": "內湖區民權東路六段90巷18號",
        "address_for_geocode": "台北市內湖區民權東路六段90巷18號",
        "latitude": 25.067889,
        "longitude": 121.585859
    },
    {
        "公司名稱": "全聯實業股份有限公司",
        "分公司名稱": "大同民族西分公司",
        "address": "大同區民族西路235號",
        "address_for_geocode": "台北市大同區民族西路235號",
        "latitude": 25.068799,
        "longitude": 121.512077
    },
    {
        "公司名稱": "全聯實業股份有限公司",
        "分公司名稱": "民權松花分公司",
        "address": "中山區合江街137號",
        "address_for_geocode": "台北市中山區合江街137號",
        "latitude": 25.061656,
        "longitude": 121.539332
    },
    {
        "公司名稱": "全聯實業股份有限公司",
        "分公司名稱": "南港凌雲分公司",
        "address": "南港區研究院路3段68巷9號",
        "address_for_geocode": "台北市南港區研究院路3段68巷9號",
        "latitude": 25.035273,
        "longitude": 121.614311
    },
    {
        "公司名稱": "全聯實業股份有限公司",
        "分公司名稱": "松山興安分公司",
        "address": "松山區民生東路3段130巷9號",
        "address_for_geocode": "台北市松山區民生東路3段130巷9號",
        "latitude": 25.056393,
        "longitude": 121.546333
    },
    {
        "公司名稱": "全聯實業股份有限公司",
        "分公司名稱": "信義嘉興分公司",
        "address": "信義區基隆路二段22號",
        "address_for_geocode": "台北市信義區基隆路二段22號",
        "latitude": 25.031936,
        "longitude": 121.558728
    },
    {
        "公司名稱": "全聯實業股份有限公司",
        "分公司名稱": "士林後港分公司",
        "address": "士林區承德里後港街30號",
        "address_for_geocode": "台北市士林區承德里後港街30號",
        "latitude": 25.083333,
        "longitude": 121.52285
    },
    {
        "公司名稱": "全聯實業股份有限公司",
        "分公司名稱": "士林中正分公司",
        "address": "士林區福林里中正路115號",
        "address_for_geocode": "台北市士林區福林里中正路115號",
        "latitude": 25.095669,
        "longitude": 121.528556
    },
    {
        "公司名稱": "全聯實業股份有限公司",
        "分公司名稱": "大安北師分公司",
        "address": "大安區群賢里和平東路二段311巷29號",
        "address_for_geocode": "台北市大安區群賢里和平東路二段311巷29號",
        "latitude": 25.025505,
        "longitude": 121.545281
    },
    {
        "公司名稱": "全聯實業股份有限公司",
        "分公司名稱": "信義信安分公司",
        "address": "信義區黎順里嘉興街245號",
        "address_for_geocode": "台北市信義區黎順里嘉興街245號",
        "latitude": 25.025112,
        "longitude": 121.556004
    },
    {
        "公司名稱": "全聯實業股份有限公司",
        "分公司名稱": "文山羅斯福分公司",
        "address": "文山區景仁里羅斯福路六段142巷11號",
        "address_for_geocode": "台北市文山區景仁里羅斯福路六段142巷11號",
        "latitude": 24.997277,
        "longitude": 121.53843
    },
    {
        "公司名稱": "全聯實業股份有限公司",
        "分公司名稱": "士林德行東分公司",
        "address": "士林區東山里德行東路331巷35號",
        "address_for_geocode": "台北市士林區東山里德行東路331巷35號",
        "latitude": 25.11175,
        "longitude": 121.537859
    },
    {
        "公司名稱": "全聯實業股份有限公司",
        "分公司名稱": "北投文林北分公司",
        "address": "北投區建民里文林北路116號",
        "address_for_geocode": "台北市北投區建民里文林北路116號",
        "latitude": 25.105954,
        "longitude": 121.517183
    },
    {
        "公司名稱": "全聯實業股份有限公司",
        "分公司名稱": "中山建國北分公司",
        "address": "中山區朱園里建國北路1段48號",
        "address_for_geocode": "台北市中山區朱園里建國北路1段48號",
        "latitude": 25.047833,
        "longitude": 121.536301
    },
    {
        "公司名稱": "全聯實業股份有限公司",
        "分公司名稱": "南港研究院分公司",
        "address": "南港區新富里研究院路1段99號",
        "address_for_geocode": "台北市南港區新富里研究院路1段99號",
        "latitude": 25.052305,
        "longitude": 121.616372
    },
    {
        "公司名稱": "全聯實業股份有限公司",
        "分公司名稱": "大安芳和分公司",
        "address": "大安區樂業街87號",
        "address_for_geocode": "台北市大安區樂業街87號",
        "latitude": 25.021653,
        "longitude": 121.551267
    },
    {
        "公司名稱": "全聯實業股份有限公司",
        "分公司名稱": "士林忠誠分公司",
        "address": "士林區忠誠路1段177號",
        "address_for_geocode": "台北市士林區忠誠路1段177號",
        "latitude": 25.107973,
        "longitude": 121.530468
    },
    {
        "公司名稱": "全聯實業股份有限公司",
        "分公司名稱": "中山林森分公司",
        "address": "中山區林森北路561號",
        "address_for_geocode": "台北市中山區林森北路561號",
        "latitude": 25.064538,
        "longitude": 121.525777
    },
    {
        "公司名稱": "全聯實業股份有限公司",
        "分公司名稱": "北投中和分公司",
        "address": "北投區中和街49號",
        "address_for_geocode": "台北市北投區中和街49號",
        "latitude": 25.138457,
        "longitude": 121.502233
    },
    {
        "公司名稱": "全聯實業股份有限公司",
        "分公司名稱": "萬華萬大分公司",
        "address": "萬華區萬大路406號",
        "address_for_geocode": "台北市萬華區萬大路406號",
        "latitude": 25.021484,
        "longitude": 121.498452
    },
    {
        "公司名稱": "全聯實業股份有限公司",
        "分公司名稱": "內湖成功分公司",
        "address": "內湖區大湖山莊街148號",
        "address_for_geocode": "台北市內湖區大湖山莊街148號",
        "latitude": 25.086137,
        "longitude": 121.601522
    },
    {
        "公司名稱": "全聯實業股份有限公司",
        "分公司名稱": "大安東門分公司",
        "address": "大安區金山南路二段12號",
        "address_for_geocode": "台北市大安區金山南路二段12號",
        "latitude": 25.033462,
        "longitude": 121.526994
    },
    {
        "公司名稱": "全聯實業股份有限公司",
        "分公司名稱": "北投明德分公司",
        "address": "北投區懷德街3-10號",
        "address_for_geocode": "台北市北投區懷德街3-10號",
        "latitude": 25.11111,
        "longitude": 121.519249
    },
    {
        "公司名稱": "全聯實業股份有限公司",
        "分公司名稱": "文山景興分公司",
        "address": "文山區景興路191號",
        "address_for_geocode": "台北市文山區景興路191號",
        "latitude": 24.992286,
        "longitude": 121.54422
    },
    {
        "公司名稱": "全聯實業股份有限公司",
        "分公司名稱": "黎忠分公司",
        "address": "信義區和平東路3段391巷16號",
        "address_for_geocode": "台北市信義區和平東路3段391巷16號",
        "latitude": 25.020248,
        "longitude": 121.558138
    },
    {
        "公司名稱": "全聯實業股份有限公司",
        "分公司名稱": "北投致遠分公司",
        "address": "北投區致遠二路113巷13號",
        "address_for_geocode": "台北市北投區致遠二路113巷13號",
        "latitude": 25.116904,
        "longitude": 121.511351
    },
    {
        "公司名稱": "全聯實業股份有限公司",
        "分公司名稱": "文山保儀分公司",
        "address": "文山區保儀路12號",
        "address_for_geocode": "台北市文山區保儀路12號",
        "latitude": 24.988536,
        "longitude": 121.568498
    },
    {
        "公司名稱": "全聯實業股份有限公司",
        "分公司名稱": "關渡藝大分公司",
        "address": "北投區中央北路4段532號",
        "address_for_geocode": "台北市北投區中央北路4段532號",
        "latitude": 25.128383,
        "longitude": 121.467903
    },
    {
        "公司名稱": "全聯實業股份有限公司",
        "分公司名稱": "內湖康樂分公司",
        "address": "內湖區康樂街116號",
        "address_for_geocode": "台北市內湖區康樂街116號",
        "latitude": 25.071071,
        "longitude": 121.619057
    },
    {
        "公司名稱": "全聯實業股份有限公司",
        "分公司名稱": "大直敬業分公司",
        "address": "中山區敬業四路33號",
        "address_for_geocode": "台北市中山區敬業四路33號",
        "latitude": 25.081043,
        "longitude": 121.558003
    },
    {
        "公司名稱": "全聯實業股份有限公司",
        "分公司名稱": "大直實踐分公司",
        "address": "中山區北安路655號",
        "address_for_geocode": "台北市中山區北安路655號",
        "latitude": 25.084448,
        "longitude": 121.54919
    },
    {
        "公司名稱": "全聯實業股份有限公司",
        "分公司名稱": "松山吉祥分公司",
        "address": "松山區光復北路11巷99號",
        "address_for_geocode": "台北市松山區光復北路11巷99號",
        "latitude": 25.050443,
        "longitude": 121.562403
    },
    {
        "公司名稱": "全聯實業股份有限公司",
        "分公司名稱": "南港中研分公司",
        "address": "南港區研究院路2段61巷15號",
        "address_for_geocode": "台北市南港區研究院路2段61巷15號",
        "latitude": 25.044633,
        "longitude": 121.617248
    },
    {
        "公司名稱": "全聯實業股份有限公司",
        "分公司名稱": "中正延平分公司",
        "address": "中正區延平南路189號",
        "address_for_geocode": "台北市中正區延平南路189號",
        "latitude": 25.033784,
        "longitude": 121.507492
    },
    {
        "公司名稱": "全聯實業股份有限公司",
        "分公司名稱": "大安正聲分公司",
        "address": "大安區延吉街161號",
        "address_for_geocode": "台北市大安區延吉街161號",
        "latitude": 25.038972,
        "longitude": 121.555265
    },
    {
        "公司名稱": "全聯實業股份有限公司",
        "分公司名稱": "南港中信分公司",
        "address": "南港區經貿二路188號",
        "address_for_geocode": "台北市南港區經貿二路188號",
        "latitude": 25.059335,
        "longitude": 121.614993
    },
    {
        "公司名稱": "全聯實業股份有限公司",
        "分公司名稱": "新湖分公司",
        "address": "內湖區新湖一路128巷36號",
        "address_for_geocode": "台北市內湖區新湖一路128巷36號",
        "latitude": 25.060009,
        "longitude": 121.576702
    },
    {
        "公司名稱": "全聯實業股份有限公司",
        "分公司名稱": "內湖東湖分公司",
        "address": "內湖區五分里東湖路118號",
        "address_for_geocode": "台北市內湖區五分里東湖路118號",
        "latitude": 25.068165,
        "longitude": 121.616083
    },
    {
        "公司名稱": "全聯實業股份有限公司",
        "分公司名稱": "天母忠誠分公司",
        "address": "士林區天福里忠誠路二段188號",
        "address_for_geocode": "台北市士林區天福里忠誠路二段188號",
        "latitude": 25.116437,
        "longitude": 121.533689
    },
    {
        "公司名稱": "全聯實業股份有限公司",
        "分公司名稱": "信義國業分公司",
        "address": "信義區國業里虎林街214號",
        "address_for_geocode": "台北市信義區國業里虎林街214號",
        "latitude": 25.03761,
        "longitude": 121.576901
    },
    {
        "公司名稱": "全聯實業股份有限公司",
        "分公司名稱": "萬華柳州分公司",
        "address": "萬華區仁德里柳州街80號",
        "address_for_geocode": "台北市萬華區仁德里柳州街80號",
        "latitude": 25.037282,
        "longitude": 121.504975
    },
    {
        "公司名稱": "全聯實業股份有限公司",
        "分公司名稱": "大同寧夏分公司",
        "address": "大同區雙連里民生西路239號",
        "address_for_geocode": "台北市大同區雙連里民生西路239號",
        "latitude": 25.057168,
        "longitude": 121.515248
    },
    {
        "公司名稱": "全聯實業股份有限公司",
        "分公司名稱": "信義虎林分公司",
        "address": "信義區四育里松隆路280號",
        "address_for_geocode": "台北市信義區四育里松隆路280號",
        "latitude": 25.048375,
        "longitude": 121.575274
    },
    {
        "公司名稱": "全聯實業股份有限公司",
        "分公司名稱": "信義松山分公司",
        "address": "信義區永春里松山路279號",
        "address_for_geocode": "台北市信義區永春里松山路279號",
        "latitude": 25.043121,
        "longitude": 121.57798
    },
    {
        "公司名稱": "全聯實業股份有限公司",
        "分公司名稱": "內湖分公司",
        "address": "內湖區舊宗路一段128號",
        "address_for_geocode": "台北市內湖區舊宗路一段128號",
        "latitude": 25.060963,
        "longitude": 121.57832
    },
    {
        "公司名稱": "全聯實業股份有限公司",
        "分公司名稱": "文山木新分公司",
        "address": "文山區恆光街37號",
        "address_for_geocode": "台北市文山區恆光街37號",
        "latitude": 24.982686,
        "longitude": 121.567051
    },
    {
        "公司名稱": "全聯實業股份有限公司",
        "分公司名稱": "萬華中華分公司",
        "address": "萬華區中華路2段666-12號",
        "address_for_geocode": "台北市萬華區中華路2段666-12號",
        "latitude": 25.024182,
        "longitude": 121.511419
    },
    {
        "公司名稱": "全聯實業股份有限公司",
        "分公司名稱": "大直北安分公司",
        "address": "中山區北安路588巷8號",
        "address_for_geocode": "台北市中山區北安路588巷8號",
        "latitude": 25.080969,
        "longitude": 121.549236
    },
    {
        "公司名稱": "全聯實業股份有限公司",
        "分公司名稱": "南湖分公司",
        "address": "內湖區舊宗路一段188號",
        "address_for_geocode": "台北市內湖區舊宗路一段188號",
        "latitude": 25.062653,
        "longitude": 121.575989
    },
    {
        "公司名稱": "全聯實業股份有限公司",
        "分公司名稱": "大同圓環分公司",
        "address": "大同區朝陽里南京西路165號",
        "address_for_geocode": "台北市大同區朝陽里南京西路165號",
        "latitude": 25.054078,
        "longitude": 121.512899
    },
    {
        "公司名稱": "全聯實業股份有限公司",
        "分公司名稱": "中山朱崙分公司",
        "address": "中山區龍江路15號",
        "address_for_geocode": "台北市中山區龍江路15號",
        "latitude": 25.047417,
        "longitude": 121.540549
    },
    {
        "公司名稱": "全聯實業股份有限公司",
        "分公司名稱": "北投東華分公司",
        "address": "北投區東華街2段180號",
        "address_for_geocode": "台北市北投區東華街2段180號",
        "latitude": 25.120188,
        "longitude": 121.511084
    },
    {
        "公司名稱": "全聯實業股份有限公司",
        "分公司名稱": "萬華長沙分公司",
        "address": "萬華區長沙街2段110號",
        "address_for_geocode": "台北市萬華區長沙街2段110號",
        "latitude": 25.040314,
        "longitude": 121.504004
    },
    {
        "公司名稱": "全聯實業股份有限公司",
        "分公司名稱": "大安復興南分公司",
        "address": "大安區復興南路2段237號",
        "address_for_geocode": "台北市大安區復興南路2段237號",
        "latitude": 25.025847,
        "longitude": 121.54371
    },
    {
        "公司名稱": "全聯實業股份有限公司",
        "分公司名稱": "民生社區分公司",
        "address": "松山區民生東路4段133號",
        "address_for_geocode": "台北市松山區民生東路4段133號",
        "latitude": 25.058495,
        "longitude": 121.554435
    },
    {
        "公司名稱": "全聯實業股份有限公司",
        "分公司名稱": "萬華環河南分公司",
        "address": "萬華區糖廍里環河南路二段137號",
        "address_for_geocode": "台北市萬華區糖廍里環河南路二段137號",
        "latitude": 25.034004,
        "longitude": 121.493294
    },
    {
        "公司名稱": "全聯實業股份有限公司",
        "分公司名稱": "文山樟文分公司",
        "address": "文山區樟文里木新路3段278巷9號",
        "address_for_geocode": "台北市文山區樟文里木新路3段278巷9號",
        "latitude": 24.981926,
        "longitude": 121.557807
    },
    {
        "公司名稱": "全聯實業股份有限公司",
        "分公司名稱": "大同大龍分公司",
        "address": "大同區斯文里大龍街91巷7號",
        "address_for_geocode": "台北市大同區斯文里大龍街91巷7號",
        "latitude": 25.067368,
        "longitude": 121.516516
    },
    {
        "公司名稱": "全聯實業股份有限公司",
        "分公司名稱": "電商供售站分公司",
        "address": "中山區金泰里敬業四路33號",
        "address_for_geocode": "台北市中山區金泰里敬業四路33號",
        "latitude": 25.081043,
        "longitude": 121.558003
    },
    {
        "公司名稱": "全聯實業股份有限公司",
        "分公司名稱": "大安仁愛分公司",
        "address": "大安區光信里仁愛路四段418號",
        "address_for_geocode": "台北市大安區光信里仁愛路四段418號",
        "latitude": 25.037405,
        "longitude": 121.557349
    },
    {
        "公司名稱": "全聯實業股份有限公司",
        "分公司名稱": "南港玉成分公司",
        "address": "南港區鴻福里玉成街189號",
        "address_for_geocode": "台北市南港區鴻福里玉成街189號",
        "latitude": 25.044428,
        "longitude": 121.584483
    },
    {
        "公司名稱": "全聯實業股份有限公司",
        "分公司名稱": "萬華莒光分公司",
        "address": "萬華區頂碩里莒光路117號",
        "address_for_geocode": "台北市萬華區頂碩里莒光路117號",
        "latitude": 25.031104,
        "longitude": 121.503897
    },
    {
        "公司名稱": "全聯實業股份有限公司",
        "分公司名稱": "大同延平北分公司",
        "address": "大同區大有里延平北路二段202號",
        "address_for_geocode": "台北市大同區大有里延平北路二段202號",
        "latitude": 25.059035,
        "longitude": 121.511296
    },
    {
        "公司名稱": "全聯實業股份有限公司",
        "分公司名稱": "北投稻香分公司",
        "address": "北投區稻香里稻香路81號",
        "address_for_geocode": "台北市北投區稻香里稻香路81號",
        "latitude": 25.140914,
        "longitude": 121.489291
    },
    {
        "公司名稱": "全聯實業股份有限公司",
        "分公司名稱": "中山天津分公司",
        "address": "中山區正得里天津街56號",
        "address_for_geocode": "台北市中山區正得里天津街56號",
        "latitude": 25.050502,
        "longitude": 121.523039
    },
    {
        "公司名稱": "全聯實業股份有限公司",
        "分公司名稱": "松山八德分公司",
        "address": "松山區慈祐里八德路四段626號",
        "address_for_geocode": "台北市松山區慈祐里八德路四段626號",
        "latitude": 25.04982,
        "longitude": 121.574178
    },
    {
        "公司名稱": "全聯實業股份有限公司",
        "分公司名稱": "大安新生南分公司",
        "address": "大安區福住里新生南路二段8號",
        "address_for_geocode": "台北市大安區福住里新生南路二段8號",
        "latitude": 25.033034,
        "longitude": 121.532533
    },
    {
        "公司名稱": "全聯實業股份有限公司",
        "分公司名稱": "中山吉林小時達專門店分公司",
        "address": "中山區新庄里吉林路456巷11號",
        "address_for_geocode": "台北市中山區新庄里吉林路456巷11號",
        "latitude": 25.067069,
        "longitude": 121.529369
    },
    {
        "公司名稱": "全聯實業股份有限公司",
        "分公司名稱": "新北投捷運分公司",
        "address": "北投區中心里大業路700號",
        "address_for_geocode": "台北市北投區中心里大業路700號",
        "latitude": 25.137018,
        "longitude": 121.503465
    },
    {
        "公司名稱": "全聯實業股份有限公司",
        "分公司名稱": "萬華中華小時達專門店分公司",
        "address": "萬華區中華路二段666之12號",
        "address_for_geocode": "台北市萬華區中華路二段666之12號",
        "latitude": 25.024295,
        "longitude": 121.511228
    },
    {
        "公司名稱": "全聯實業股份有限公司",
        "分公司名稱": "數位服務第二分公司",
        "address": "中山區金泰里敬業四路33號",
        "address_for_geocode": "台北市中山區金泰里敬業四路33號",
        "latitude": 25.081043,
        "longitude": 121.558003
    },
    {
        "公司名稱": "全聯實業股份有限公司",
        "分公司名稱": "南港旗艦分公司",
        "address": "南港區東明里南港路二段20巷5號",
        "address_for_geocode": "台北市南港區東明里南港路二段20巷5號",
        "latitude": 25.054443,
        "longitude": 121.605578
    },
    {
        "公司名稱": "全聯實業股份有限公司",
        "分公司名稱": "南港忠孝東分公司",
        "address": "南港區合成里忠孝東路六段195號",
        "address_for_geocode": "台北市南港區合成里忠孝東路六段195號",
        "latitude": 25.049298,
        "longitude": 121.587501
    },
    {
        "公司名稱": "全聯實業股份有限公司",
        "分公司名稱": "內湖瑞光分公司",
        "address": "內湖區湖元里陽光街319號",
        "address_for_geocode": "台北市內湖區湖元里陽光街319號",
        "latitude": 25.07353,
        "longitude": 121.578981
    },
    {
        "公司名稱": "全聯實業股份有限公司",
        "分公司名稱": "文山萬美分公司",
        "address": "文山區萬芳里萬美街一段55號",
        "address_for_geocode": "台北市文山區萬芳里萬美街一段55號",
        "latitude": 25.002343,
        "longitude": 121.568117
    },
    {
        "公司名稱": "全聯實業股份有限公司",
        "分公司名稱": "內湖舊宗分公司",
        "address": "內湖區湖元里舊宗路一段128號",
        "address_for_geocode": "台北市內湖區湖元里舊宗路一段128號",
        "latitude": 25.060963,
        "longitude": 121.57832
    },
    {
        "公司名稱": "全聯實業股份有限公司",
        "分公司名稱": "大直明水分公司",
        "address": "中山區永安里明水路589號",
        "address_for_geocode": "台北市中山區永安里明水路589號",
        "latitude": 25.080717,
        "longitude": 121.551603
    },
    {
        "公司名稱": "全聯實業股份有限公司",
        "分公司名稱": "文山興隆分公司",
        "address": "文山區萬盛里興隆路1段15號",
        "address_for_geocode": "台北市文山區萬盛里興隆路1段15號",
        "latitude": 25.004286,
        "longitude": 121.540353
    },
    {
        "公司名稱": "全聯實業股份有限公司",
        "分公司名稱": "士林華岡分公司",
        "address": "士林區陽明里華岡路55號",
        "address_for_geocode": "台北市士林區陽明里華岡路55號",
        "latitude": 25.137521,
        "longitude": 121.540405
    },
    {
        "公司名稱": "全聯實業股份有限公司",
        "分公司名稱": "中山新生北分公司",
        "address": "中山區康樂里新生北路二段28巷1號",
        "address_for_geocode": "台北市中山區康樂里新生北路二段28巷1號",
        "latitude": 25.053891,
        "longitude": 121.527003
    },
    {
        "公司名稱": "全聯實業股份有限公司",
        "分公司名稱": "中山民權東分公司",
        "address": "中山區新福里民權東路二段71巷8號",
        "address_for_geocode": "台北市中山區新福里民權東路二段71巷8號",
        "latitude": 25.063339,
        "longitude": 121.531609
    },
    {
        "公司名稱": "全聯實業股份有限公司",
        "分公司名稱": "松山南京東分公司",
        "address": "松山區吉祥里南京東路五段58號",
        "address_for_geocode": "台北市松山區吉祥里南京東路五段58號",
        "latitude": 25.051288,
        "longitude": 121.56037
    },
    {
        "公司名稱": "統一超商股份有限公司",
        "分公司名稱": "台北市第一一八六分公司",
        "address": "中正區汀州路三段180號",
        "address_for_geocode": "台北市中正區汀州路三段180號",
        "latitude": 25.01301,
        "longitude": 121.534853
    },
    {
        "公司名稱": "統一超商股份有限公司",
        "分公司名稱": "台北市第一二四０分公司",
        "address": "大安區忠孝東路三段251巷2弄1號",
        "address_for_geocode": "台北市大安區忠孝東路三段251巷2弄1號",
        "latitude": 25.042105,
        "longitude": 121.541538
    },
    {
        "公司名稱": "統一超商股份有限公司",
        "分公司名稱": "台北市第一二三九分公司",
        "address": "士林區美崙街114號",
        "address_for_geocode": "台北市士林區美崙街114號",
        "latitude": 25.097069,
        "longitude": 121.519619
    },
    {
        "公司名稱": "統一超商股份有限公司",
        "分公司名稱": "台北市第一二三三分公司",
        "address": "中山區德惠街65號",
        "address_for_geocode": "台北市中山區德惠街65號",
        "latitude": 25.066722,
        "longitude": 121.528085
    },
    {
        "公司名稱": "統一超商股份有限公司",
        "分公司名稱": "台北市第一二三四分公司",
        "address": "內湖區東湖路114號",
        "address_for_geocode": "台北市內湖區東湖路114號",
        "latitude": 25.068231,
        "longitude": 121.615852
    },
    {
        "公司名稱": "統一超商股份有限公司",
        "分公司名稱": "台北市第一二三七分公司",
        "address": "松山區南京東路三段331號",
        "address_for_geocode": "台北市松山區南京東路三段331號",
        "latitude": 25.051989,
        "longitude": 121.547286
    },
    {
        "公司名稱": "統一超商股份有限公司",
        "分公司名稱": "台北市第一二四七分公司",
        "address": "萬華區西園路一段80號",
        "address_for_geocode": "台北市萬華區西園路一段80號",
        "latitude": 25.039222,
        "longitude": 121.499753
    },
    {
        "公司名稱": "統一超商股份有限公司",
        "分公司名稱": "台北市第一一八五分公司",
        "address": "文山區和興路1號",
        "address_for_geocode": "台北市文山區和興路1號",
        "latitude": 24.98651,
        "longitude": 121.546143
    },
    {
        "公司名稱": "統一超商股份有限公司",
        "分公司名稱": "台北市第一二四一分公司",
        "address": "北投區公舘路230號",
        "address_for_geocode": "台北市北投區公舘路230號",
        "latitude": 25.126307,
        "longitude": 121.507946
    },
    {
        "公司名稱": "統一超商股份有限公司",
        "分公司名稱": "台北市第一一六六分公司",
        "address": "萬華區康定路154號",
        "address_for_geocode": "台北市萬華區康定路154號",
        "latitude": 25.03967,
        "longitude": 121.501848
    },
    {
        "公司名稱": "統一超商股份有限公司",
        "分公司名稱": "台北市第一一八三分公司",
        "address": "南港區園區街3號",
        "address_for_geocode": "台北市南港區園區街3號",
        "latitude": 25.058478,
        "longitude": 121.611987
    },
    {
        "公司名稱": "統一超商股份有限公司",
        "分公司名稱": "台北市第一一八四分公司",
        "address": "文山區興隆路四段55號",
        "address_for_geocode": "台北市文山區興隆路四段55號",
        "latitude": 24.989672,
        "longitude": 121.559875
    },
    {
        "公司名稱": "統一超商股份有限公司",
        "分公司名稱": "台北市第一二四二分公司",
        "address": "松山區光復北路32號",
        "address_for_geocode": "台北市松山區光復北路32號",
        "latitude": 25.049303,
        "longitude": 121.557681
    },
    {
        "公司名稱": "統一超商股份有限公司",
        "分公司名稱": "台北市第一二三○分公司",
        "address": "萬華區興義街41號",
        "address_for_geocode": "台北市萬華區興義街41號",
        "latitude": 25.026544,
        "longitude": 121.491722
    },
    {
        "公司名稱": "統一超商股份有限公司",
        "分公司名稱": "台北市第一二三二分公司",
        "address": "中山區林森北路107巷83號",
        "address_for_geocode": "台北市中山區林森北路107巷83號",
        "latitude": 25.049763,
        "longitude": 121.527825
    },
    {
        "公司名稱": "統一超商股份有限公司",
        "分公司名稱": "台北市第一二三六分公司",
        "address": "萬華區大理街128之1號",
        "address_for_geocode": "台北市萬華區大理街128之1號",
        "latitude": 25.034094,
        "longitude": 121.496889
    },
    {
        "公司名稱": "統一超商股份有限公司",
        "分公司名稱": "台北市第一二三一分公司",
        "address": "松山區八德路三段74巷43號",
        "address_for_geocode": "台北市松山區八德路三段74巷43號",
        "latitude": 25.046274,
        "longitude": 121.552581
    },
    {
        "公司名稱": "統一超商股份有限公司",
        "分公司名稱": "台北市第一二三五分公司",
        "address": "松山區八德路四段147號",
        "address_for_geocode": "台北市松山區八德路四段147號",
        "latitude": 25.048785,
        "longitude": 121.562423
    },
    {
        "公司名稱": "統一超商股份有限公司",
        "分公司名稱": "台北市第一二三八分公司",
        "address": "中山區敬業一路56號",
        "address_for_geocode": "台北市中山區敬業一路56號",
        "latitude": 25.081644,
        "longitude": 121.552817
    },
    {
        "公司名稱": "統一超商股份有限公司",
        "分公司名稱": "台北市第一七０分公司",
        "address": "士林區文林路一六九號",
        "address_for_geocode": "台北市士林區文林路一六九號",
        "latitude": 25.089461,
        "longitude": 121.526767
    },
    {
        "公司名稱": "統一超商股份有限公司",
        "分公司名稱": "台北巿第三四二分公司",
        "address": "松山區健康路224號",
        "address_for_geocode": "台北市松山區健康路224號",
        "latitude": 25.053862,
        "longitude": 121.561117
    },
    {
        "公司名稱": "統一超商股份有限公司",
        "分公司名稱": "台北巿第二二四分公司",
        "address": "中山區民權東路三段71號",
        "address_for_geocode": "台北市中山區民權東路三段71號",
        "latitude": 25.06254,
        "longitude": 121.54349
    },
    {
        "公司名稱": "統一超商股份有限公司",
        "分公司名稱": "台北巿第２３３分公司",
        "address": "南港區東新街80巷1號",
        "address_for_geocode": "台北市南港區東新街80巷1號",
        "latitude": 25.046254,
        "longitude": 121.587089
    },
    {
        "公司名稱": "統一超商股份有限公司",
        "分公司名稱": "台北巿第３４３分公司",
        "address": "中山區民生東路二段157號",
        "address_for_geocode": "台北市中山區民生東路二段157號",
        "latitude": 25.058116,
        "longitude": 121.535932
    },
    {
        "公司名稱": "統一超商股份有限公司",
        "分公司名稱": "台北巿第２３７分公司",
        "address": "信義區吳興街257號",
        "address_for_geocode": "台北市信義區吳興街257號",
        "latitude": 25.027101,
        "longitude": 121.563776
    },
    {
        "公司名稱": "統一超商股份有限公司",
        "分公司名稱": "台北巿第２１３分公司",
        "address": "中山區伊通街30號",
        "address_for_geocode": "台北市中山區伊通街30號",
        "latitude": 25.050867,
        "longitude": 121.53466
    },
    {
        "公司名稱": "統一超商股份有限公司",
        "分公司名稱": "台北市第３３１分公司",
        "address": "中山區林森北路262號",
        "address_for_geocode": "台北市中山區林森北路262號",
        "latitude": 25.054625,
        "longitude": 121.525327
    },
    {
        "公司名稱": "統一超商股份有限公司",
        "分公司名稱": "台北市第３４６分公司",
        "address": "萬華區環河南路二段200號",
        "address_for_geocode": "台北市萬華區環河南路二段200號",
        "latitude": 25.034114,
        "longitude": 121.493031
    },
    {
        "公司名稱": "統一超商股份有限公司",
        "分公司名稱": "台北巿第３５０分公司",
        "address": "大安區和平東路二段118巷33號",
        "address_for_geocode": "台北市大安區和平東路二段118巷33號",
        "latitude": 25.02352,
        "longitude": 121.542923
    },
    {
        "公司名稱": "統一超商股份有限公司",
        "分公司名稱": "台北巿第３５１分公司",
        "address": "北投區明德路99號",
        "address_for_geocode": "台北市北投區明德路99號",
        "latitude": 25.109498,
        "longitude": 121.519408
    },
    {
        "公司名稱": "統一超商股份有限公司",
        "分公司名稱": "台北巿第３５２分公司",
        "address": "中山區復興北路164號",
        "address_for_geocode": "台北市中山區復興北路164號",
        "latitude": 25.053472,
        "longitude": 121.54386
    },
    {
        "公司名稱": "統一超商股份有限公司",
        "分公司名稱": "台北巿第３５８分公司",
        "address": "大安區大安路二段102號",
        "address_for_geocode": "台北市大安區大安路二段102號",
        "latitude": 25.030797,
        "longitude": 121.545956
    },
    {
        "公司名稱": "統一超商股份有限公司",
        "分公司名稱": "台北巿第３５９分公司",
        "address": "士林區德行東路262號",
        "address_for_geocode": "台北市士林區德行東路262號",
        "latitude": 25.109718,
        "longitude": 121.534599
    },
    {
        "公司名稱": "統一超商股份有限公司",
        "分公司名稱": "台北巿第３６０分公司",
        "address": "大安區東豐街9號",
        "address_for_geocode": "台北市大安區東豐街9號",
        "latitude": 25.036128,
        "longitude": 121.544274
    },
    {
        "公司名稱": "統一超商股份有限公司",
        "分公司名稱": "台北巿第３６１分公司",
        "address": "大安區建國南路一段274號",
        "address_for_geocode": "台北市大安區建國南路一段274號",
        "latitude": 25.036389,
        "longitude": 121.537342
    },
    {
        "公司名稱": "統一超商股份有限公司",
        "分公司名稱": "台北巿第三六二分公司",
        "address": "中正區永昌里21鄰中華路二段405號",
        "address_for_geocode": "台北市中正區永昌里21鄰中華路二段405號",
        "latitude": 25.02604,
        "longitude": 121.508185
    },
    {
        "公司名稱": "統一超商股份有限公司",
        "分公司名稱": "台北巿第３６４分公司",
        "address": "中山區長春路67號",
        "address_for_geocode": "台北市中山區長春路67號",
        "latitude": 25.055023,
        "longitude": 121.526493
    },
    {
        "公司名稱": "統一超商股份有限公司",
        "分公司名稱": "台北巿第３６５分公司",
        "address": "信義區大仁里8鄰林口街48號",
        "address_for_geocode": "台北市信義區大仁里8鄰林口街48號",
        "latitude": 25.038259,
        "longitude": 121.579467
    },
    {
        "公司名稱": "統一超商股份有限公司",
        "分公司名稱": "台北巿第３６７分公司",
        "address": "北投區公館路31號",
        "address_for_geocode": "台北市北投區公館路31號",
        "latitude": 25.133069,
        "longitude": 121.503136
    },
    {
        "公司名稱": "統一超商股份有限公司",
        "分公司名稱": "台北巿第３６９分公司",
        "address": "信義區新仁里24鄰東興路57號",
        "address_for_geocode": "台北市信義區新仁里24鄰東興路57號",
        "latitude": 25.047457,
        "longitude": 121.56664
    },
    {
        "公司名稱": "統一超商股份有限公司",
        "分公司名稱": "台北巿第３７１分公司",
        "address": "南港區興華路117號",
        "address_for_geocode": "台北市南港區興華路117號",
        "latitude": 25.056882,
        "longitude": 121.605681
    },
    {
        "公司名稱": "統一超商股份有限公司",
        "分公司名稱": "台北巿第３７２分公司",
        "address": "南港區忠孝東路六段276號",
        "address_for_geocode": "台北市南港區忠孝東路六段276號",
        "latitude": 25.049095,
        "longitude": 121.589035
    },
    {
        "公司名稱": "統一超商股份有限公司",
        "分公司名稱": "台北巿第３７６分公司",
        "address": "文山區景行里景文街96號",
        "address_for_geocode": "台北市文山區景行里景文街96號",
        "latitude": 24.990312,
        "longitude": 121.540974
    },
    {
        "公司名稱": "統一超商股份有限公司",
        "分公司名稱": "台北巿第３７９分公司",
        "address": "中山區合江街117號",
        "address_for_geocode": "台北市中山區合江街117號",
        "latitude": 25.060349,
        "longitude": 121.539318
    },
    {
        "公司名稱": "統一超商股份有限公司",
        "分公司名稱": "台北市第三八三分公司",
        "address": "北投區光明路122號",
        "address_for_geocode": "台北市北投區光明路122號",
        "latitude": 25.133296,
        "longitude": 121.501838
    },
    {
        "公司名稱": "統一超商股份有限公司",
        "分公司名稱": "台北市第３８４分公司",
        "address": "松山區南京東路五段139之4號",
        "address_for_geocode": "台北市松山區南京東路五段139之4號",
        "latitude": 25.051585,
        "longitude": 121.561607
    },
    {
        "公司名稱": "統一超商股份有限公司",
        "分公司名稱": "台北市第３８５分公司",
        "address": "中山區北安路六四九號",
        "address_for_geocode": "台北市中山區北安路六四九號",
        "latitude": 25.084062,
        "longitude": 121.549118
    },
    {
        "公司名稱": "統一超商股份有限公司",
        "分公司名稱": "台北市第３８６分公司",
        "address": "大同區民生西路95號",
        "address_for_geocode": "台北市大同區民生西路95號",
        "latitude": 25.057605,
        "longitude": 121.519262
    },
    {
        "公司名稱": "統一超商股份有限公司",
        "分公司名稱": "台北市第３８９分公司",
        "address": "大同區延平北路二段159號",
        "address_for_geocode": "台北市大同區延平北路二段159號",
        "latitude": 25.058262,
        "longitude": 121.511596
    },
    {
        "公司名稱": "統一超商股份有限公司",
        "分公司名稱": "台北市第３８８分公司",
        "address": "士林區光華路26巷7-1號",
        "address_for_geocode": "台北市士林區光華路26巷7-1號",
        "latitude": 25.136963,
        "longitude": 121.541507
    },
    {
        "公司名稱": "統一超商股份有限公司",
        "分公司名稱": "台北市第３９１分公司",
        "address": "大安區師大路五十九巷十三號",
        "address_for_geocode": "台北市大安區師大路五十九巷十三號",
        "latitude": 25.023987,
        "longitude": 121.529312
    },
    {
        "公司名稱": "統一超商股份有限公司",
        "分公司名稱": "台北市第３６分公司",
        "address": "中正區杭州南路一段83號",
        "address_for_geocode": "台北市中正區杭州南路一段83號",
        "latitude": 25.03908,
        "longitude": 121.525528
    },
    {
        "公司名稱": "統一超商股份有限公司",
        "分公司名稱": "台北市第４５分公司",
        "address": "大同區酒泉街58號",
        "address_for_geocode": "台北市大同區酒泉街58號",
        "latitude": 25.071898,
        "longitude": 121.515698
    },
    {
        "公司名稱": "統一超商股份有限公司",
        "分公司名稱": "台北市第３３９分公司",
        "address": "松山區新東街十五巷一號",
        "address_for_geocode": "台北市松山區新東街十五巷一號",
        "latitude": 25.058522,
        "longitude": 121.565859
    },
    {
        "公司名稱": "統一超商股份有限公司",
        "分公司名稱": "台北市第３１１分公司",
        "address": "松山區三民路十號",
        "address_for_geocode": "台北市松山區三民路十號",
        "latitude": 25.052387,
        "longitude": 121.563978
    },
    {
        "公司名稱": "統一超商股份有限公司",
        "分公司名稱": "台北市第３９２分公司",
        "address": "中山區長安東路二段一０一號",
        "address_for_geocode": "台北市中山區長安東路二段一０一號",
        "latitude": 25.048523,
        "longitude": 121.535076
    },
    {
        "公司名稱": "統一超商股份有限公司",
        "分公司名稱": "台北市第３９４分公司",
        "address": "士林區中山北路七段14巷19號",
        "address_for_geocode": "台北市士林區中山北路七段14巷19號",
        "latitude": 25.118839,
        "longitude": 121.532336
    },
    {
        "公司名稱": "統一超商股份有限公司",
        "分公司名稱": "台北市第４０１分公司",
        "address": "大安區大安路一段218號",
        "address_for_geocode": "台北市大安區大安路一段218號",
        "latitude": 25.034413,
        "longitude": 121.545897
    },
    {
        "公司名稱": "統一超商股份有限公司",
        "分公司名稱": "台北市第４０２分公司",
        "address": "內湖區大湖山莊街219巷6號",
        "address_for_geocode": "台北市內湖區大湖山莊街219巷6號",
        "latitude": 25.088481,
        "longitude": 121.599435
    },
    {
        "公司名稱": "統一超商股份有限公司",
        "分公司名稱": "台北市第４１２分公司",
        "address": "大安區仁愛路四段二十七巷一號",
        "address_for_geocode": "台北市大安區仁愛路四段二十七巷一號",
        "latitude": 25.038766,
        "longitude": 121.545278
    },
    {
        "公司名稱": "統一超商股份有限公司",
        "分公司名稱": "台北市第４１３分公司",
        "address": "信義區惠安里吳興街五二０號",
        "address_for_geocode": "台北市信義區惠安里吳興街五二０號",
        "latitude": 25.022106,
        "longitude": 121.568857
    },
    {
        "公司名稱": "統一超商股份有限公司",
        "分公司名稱": "台北市第四一四分公司",
        "address": "大安區忠孝東路四段二一六巷六十八號",
        "address_for_geocode": "台北市大安區忠孝東路四段二一六巷六十八號",
        "latitude": 25.038292,
        "longitude": 121.552844
    },
    {
        "公司名稱": "統一超商股份有限公司",
        "分公司名稱": "台北市第四一八分公司",
        "address": "大安區建國南路一段28號",
        "address_for_geocode": "台北市大安區建國南路一段28號",
        "latitude": 25.04428,
        "longitude": 121.53623
    },
    {
        "公司名稱": "統一超商股份有限公司",
        "分公司名稱": "台北市第四二０分公司",
        "address": "南港區研究院路一段九十九號",
        "address_for_geocode": "台北市南港區研究院路一段九十九號",
        "latitude": 25.052305,
        "longitude": 121.616372
    },
    {
        "公司名稱": "統一超商股份有限公司",
        "分公司名稱": "台北市第四二三分公司",
        "address": "信義區松山路608號",
        "address_for_geocode": "台北市信義區松山路608號",
        "latitude": 25.035823,
        "longitude": 121.578526
    },
    {
        "公司名稱": "統一超商股份有限公司",
        "分公司名稱": "台北市第四二四分公司",
        "address": "內湖區康寧路三段99巷14號",
        "address_for_geocode": "台北市內湖區康寧路三段99巷14號",
        "latitude": 25.072708,
        "longitude": 121.610764
    },
    {
        "公司名稱": "統一超商股份有限公司",
        "分公司名稱": "台北市第四二六分公司",
        "address": "士林區福國路94號",
        "address_for_geocode": "台北市士林區福國路94號",
        "latitude": 25.102117,
        "longitude": 121.522302
    },
    {
        "公司名稱": "統一超商股份有限公司",
        "分公司名稱": "台北市第四二七分公司",
        "address": "南港區八德路四段778號",
        "address_for_geocode": "台北市南港區八德路四段778號",
        "latitude": 25.050438,
        "longitude": 121.580267
    },
    {
        "公司名稱": "統一超商股份有限公司",
        "分公司名稱": "臺北市第１分公司",
        "address": "中山北路六段１５０號",
        "address_for_geocode": "台北市中山北路六段１５０號",
        "latitude": 25.106394,
        "longitude": 121.525028
    },
    {
        "公司名稱": "統一超商股份有限公司",
        "分公司名稱": "臺北市第３分公司",
        "address": "石牌路二段７６號",
        "address_for_geocode": "台北市石牌路二段７６號",
        "latitude": 25.116562,
        "longitude": 121.516221
    },
    {
        "公司名稱": "統一超商股份有限公司",
        "分公司名稱": "臺北市第４分公司",
        "address": "中山北路七段１７４號",
        "address_for_geocode": "台北市中山北路七段１７４號",
        "latitude": 25.124367,
        "longitude": 121.53278
    },
    {
        "公司名稱": "統一超商股份有限公司",
        "分公司名稱": "台北市第５分公司",
        "address": "北投區榮華三路３–１號",
        "address_for_geocode": "台北市北投區榮華三路３–１號",
        "latitude": 25.113684,
        "longitude": 121.523957
    },
    {
        "公司名稱": "統一超商股份有限公司",
        "分公司名稱": "台北市第６分公司",
        "address": "北投區石牌路一段126號",
        "address_for_geocode": "台北市北投區石牌路一段126號",
        "latitude": 25.114031,
        "longitude": 121.51244
    },
    {
        "公司名稱": "統一超商股份有限公司",
        "分公司名稱": "台北市第７分公司",
        "address": "北投區中和街222號",
        "address_for_geocode": "台北市北投區中和街222號",
        "latitude": 25.139094,
        "longitude": 121.501847
    },
    {
        "公司名稱": "統一超商股份有限公司",
        "分公司名稱": "台北市第８分公司",
        "address": "士林區忠誠路二段7號",
        "address_for_geocode": "台北市士林區忠誠路二段7號",
        "latitude": 25.108924,
        "longitude": 121.530633
    },
    {
        "公司名稱": "統一超商股份有限公司",
        "分公司名稱": "台北市第九分公司",
        "address": "松山區八德路三段200號",
        "address_for_geocode": "台北市松山區八德路三段200號",
        "latitude": 25.047939,
        "longitude": 121.556424
    },
    {
        "公司名稱": "統一超商股份有限公司",
        "分公司名稱": "台北市第十三分公司",
        "address": "松山區八德路三段27號",
        "address_for_geocode": "台北市松山區八德路三段27號",
        "latitude": 25.048313,
        "longitude": 121.552757
    },
    {
        "公司名稱": "統一超商股份有限公司",
        "分公司名稱": "台北市第十四分公司",
        "address": "信義區光復南路471號",
        "address_for_geocode": "台北市信義區光復南路471號",
        "latitude": 25.033722,
        "longitude": 121.557669
    },
    {
        "公司名稱": "統一超商股份有限公司",
        "分公司名稱": "台北市第１６分公司",
        "address": "松信路１４５號",
        "address_for_geocode": "台北市松信路１４５號",
        "latitude": 25.043577,
        "longitude": 121.572162
    },
    {
        "公司名稱": "統一超商股份有限公司",
        "分公司名稱": "臺北市第十七分公司",
        "address": "信義區忠孝東路五段386號",
        "address_for_geocode": "台北市信義區忠孝東路五段386號",
        "latitude": 25.040745,
        "longitude": 121.574121
    },
    {
        "公司名稱": "統一超商股份有限公司",
        "分公司名稱": "臺北市第十八分公司",
        "address": "信義區基隆路二段22號",
        "address_for_geocode": "台北市信義區基隆路二段22號",
        "latitude": 25.031936,
        "longitude": 121.558728
    },
    {
        "公司名稱": "統一超商股份有限公司",
        "分公司名稱": "台北市第十九分公司",
        "address": "信義區永吉路32號",
        "address_for_geocode": "台北市信義區永吉路32號",
        "latitude": 25.045527,
        "longitude": 121.568954
    },
    {
        "公司名稱": "統一超商股份有限公司",
        "分公司名稱": "台北市第二十分公司",
        "address": "中坡南路三十八號",
        "address_for_geocode": "台北市中坡南路三十八號",
        "latitude": 25.042827,
        "longitude": 121.583374
    },
    {
        "公司名稱": "統一超商股份有限公司",
        "分公司名稱": "台北市第二十四分公司",
        "address": "松山區延壽街422號",
        "address_for_geocode": "台北市松山區延壽街422號",
        "latitude": 25.056223,
        "longitude": 121.556446
    },
    {
        "公司名稱": "統一超商股份有限公司",
        "分公司名稱": "台北市第二十五分公司",
        "address": "松山區敦化北路149號",
        "address_for_geocode": "台北市松山區敦化北路149號",
        "latitude": 25.054042,
        "longitude": 121.549352
    },
    {
        "公司名稱": "統一超商股份有限公司",
        "分公司名稱": "台北市第二十六分公司",
        "address": "松山區八德路二段439號",
        "address_for_geocode": "台北市松山區八德路二段439號",
        "latitude": 25.04831,
        "longitude": 121.546956
    },
    {
        "公司名稱": "統一超商股份有限公司",
        "分公司名稱": "台北市第二十七分公司",
        "address": "松山區民權東路3段108號",
        "address_for_geocode": "台北市松山區民權東路3段108號",
        "latitude": 25.061884,
        "longitude": 121.545044
    },
    {
        "公司名稱": "統一超商股份有限公司",
        "分公司名稱": "台北市第２９分公司",
        "address": "大安區永康街43號",
        "address_for_geocode": "台北市大安區永康街43號",
        "latitude": 25.030409,
        "longitude": 121.529586
    },
    {
        "公司名稱": "統一超商股份有限公司",
        "分公司名稱": "臺北市第３１分公司",
        "address": "忠孝東路三段２１７巷１弄２號",
        "address_for_geocode": "台北市忠孝東路三段２１７巷１弄２號",
        "latitude": 25.042403,
        "longitude": 121.5396
    },
    {
        "公司名稱": "統一超商股份有限公司",
        "分公司名稱": "台北市第三十四分公司",
        "address": "中正區新生南路一段126-7號",
        "address_for_geocode": "台北市中正區新生南路一段126-7號",
        "latitude": 25.03715,
        "longitude": 121.532504
    },
    {
        "公司名稱": "統一超商股份有限公司",
        "分公司名稱": "台北市第三十六分公司",
        "address": "連雲街７２–１號",
        "address_for_geocode": "台北市連雲街７２–１號",
        "latitude": 25.034526,
        "longitude": 121.529968
    },
    {
        "公司名稱": "統一超商股份有限公司",
        "分公司名稱": "台北市第３９分公司",
        "address": "大安區師大路87號",
        "address_for_geocode": "台北市大安區師大路87號",
        "latitude": 25.02321,
        "longitude": 121.528556
    },
    {
        "公司名稱": "統一超商股份有限公司",
        "分公司名稱": "臺北市第４４分公司",
        "address": "和平東路三段３０８巷３０號",
        "address_for_geocode": "台北市和平東路三段３０８巷３０號",
        "latitude": 25.019818,
        "longitude": 121.555646
    },
    {
        "公司名稱": "統一超商股份有限公司",
        "分公司名稱": "台北市第４７分公司",
        "address": "大安區信義路四段265巷12弄1號",
        "address_for_geocode": "台北市大安區信義路四段265巷12弄1號",
        "latitude": 25.034302,
        "longitude": 121.554356
    },
    {
        "公司名稱": "統一超商股份有限公司",
        "分公司名稱": "台北市第５０分公司",
        "address": "大安區安和路1段86號",
        "address_for_geocode": "台北市大安區安和路1段86號",
        "latitude": 25.034781,
        "longitude": 121.552347
    },
    {
        "公司名稱": "統一超商股份有限公司",
        "分公司名稱": "台北市第五十五分公司",
        "address": "雙城街十六–１號",
        "address_for_geocode": "台北市雙城街十六–１號",
        "latitude": 25.065255,
        "longitude": 121.524208
    },
    {
        "公司名稱": "統一超商股份有限公司",
        "分公司名稱": "台北市第五十七分公司",
        "address": "中山區農安街28-1號",
        "address_for_geocode": "台北市中山區農安街28-1號",
        "latitude": 25.064815,
        "longitude": 121.526374
    },
    {
        "公司名稱": "統一超商股份有限公司",
        "分公司名稱": "台北市第五十九分公司",
        "address": "大同區重慶北路三段258號",
        "address_for_geocode": "台北市大同區重慶北路三段258號",
        "latitude": 25.07145,
        "longitude": 121.513585
    },
    {
        "公司名稱": "統一超商股份有限公司",
        "分公司名稱": "臺北市第６１分公司",
        "address": "民權西路３８號",
        "address_for_geocode": "台北市民權西路３８號",
        "latitude": 25.062618,
        "longitude": 121.521261
    },
    {
        "公司名稱": "統一超商股份有限公司",
        "分公司名稱": "台北市第六十三分公司",
        "address": "中正區青島東路4號",
        "address_for_geocode": "台北市中正區青島東路4號",
        "latitude": 25.043913,
        "longitude": 121.521383
    },
    {
        "公司名稱": "統一超商股份有限公司",
        "分公司名稱": "台北市第六十四分公司",
        "address": "中正區武昌街一段1-2號",
        "address_for_geocode": "台北市中正區武昌街一段1-2號",
        "latitude": 25.044105,
        "longitude": 121.513569
    },
    {
        "公司名稱": "統一超商股份有限公司",
        "分公司名稱": "台北市第六十五分公司",
        "address": "士林區中正路220號",
        "address_for_geocode": "台北市士林區中正路220號",
        "latitude": 25.09552,
        "longitude": 121.526079
    },
    {
        "公司名稱": "統一超商股份有限公司",
        "分公司名稱": "台北市第六十六分公司",
        "address": "中華商場義棟六十七號",
        "address_for_geocode": "台北市中華商場義棟六十七號",
        "latitude": 25.038412,
        "longitude": 121.563705
    },
    {
        "公司名稱": "統一超商股份有限公司",
        "分公司名稱": "台北市第六十八分公司",
        "address": "中正區金山南路一段108號",
        "address_for_geocode": "台北市中正區金山南路一段108號",
        "latitude": 25.035472,
        "longitude": 121.52733
    },
    {
        "公司名稱": "統一超商股份有限公司",
        "分公司名稱": "台北市第六十九分公司",
        "address": "萬華區康定路203號",
        "address_for_geocode": "台北市萬華區康定路203號",
        "latitude": 25.036033,
        "longitude": 121.501473
    },
    {
        "公司名稱": "統一超商股份有限公司",
        "分公司名稱": "台北市第七十一分公司",
        "address": "中山北路一段１０５巷８號",
        "address_for_geocode": "台北市中山北路一段１０５巷８號",
        "latitude": 25.05065,
        "longitude": 121.523385
    },
    {
        "公司名稱": "統一超商股份有限公司",
        "分公司名稱": "臺北市第７３分公司",
        "address": "南京東路一段１３２巷２１–１號",
        "address_for_geocode": "台北市南京東路一段１３２巷２１–１號",
        "latitude": 25.051075,
        "longitude": 121.527119
    },
    {
        "公司名稱": "統一超商股份有限公司",
        "分公司名稱": "台北市第七十七分公司",
        "address": "中山區天津街65號",
        "address_for_geocode": "台北市中山區天津街65號",
        "latitude": 25.05171,
        "longitude": 121.523548
    },
    {
        "公司名稱": "統一超商股份有限公司",
        "分公司名稱": "台北市第八十一分公司",
        "address": "中山區民生東路2段111號",
        "address_for_geocode": "台北市中山區民生東路2段111號",
        "latitude": 25.058102,
        "longitude": 121.531514
    },
    {
        "公司名稱": "統一超商股份有限公司",
        "分公司名稱": "台北市第八十四分公司",
        "address": "龍江路２４４號",
        "address_for_geocode": "台北市龍江路２４４號",
        "latitude": 25.058981,
        "longitude": 121.540614
    },
    {
        "公司名稱": "統一超商股份有限公司",
        "分公司名稱": "台北市第八十六分公司",
        "address": "中山區林森北路500號",
        "address_for_geocode": "台北市中山區林森北路500號",
        "latitude": 25.061793,
        "longitude": 121.525475
    },
    {
        "公司名稱": "統一超商股份有限公司",
        "分公司名稱": "台北市第八七分公司",
        "address": "忠孝東路四段五六０號",
        "address_for_geocode": "台北市忠孝東路四段五六０號",
        "latitude": 25.040984,
        "longitude": 121.563891
    },
    {
        "公司名稱": "統一超商股份有限公司",
        "分公司名稱": "台北市第八十九分公司",
        "address": "中山區合江街58巷1號",
        "address_for_geocode": "台北市中山區合江街58巷1號",
        "latitude": 25.055835,
        "longitude": 121.538925
    },
    {
        "公司名稱": "統一超商股份有限公司",
        "分公司名稱": "臺北巿第九三分公司",
        "address": "內湖路１段７３３號",
        "address_for_geocode": "台北市內湖路１段７３３號",
        "latitude": 25.079098,
        "longitude": 121.578092
    },
    {
        "公司名稱": "統一超商股份有限公司",
        "分公司名稱": "台北巿第九十四分公司",
        "address": "永吉路３２５號",
        "address_for_geocode": "台北市永吉路３２５號",
        "latitude": 25.045668,
        "longitude": 121.575595
    },
    {
        "公司名稱": "統一超商股份有限公司",
        "分公司名稱": "台北巿第九十五分公司",
        "address": "萬華區萬大路245號",
        "address_for_geocode": "台北市萬華區萬大路245號",
        "latitude": 25.026165,
        "longitude": 121.500594
    },
    {
        "公司名稱": "統一超商股份有限公司",
        "分公司名稱": "台北巿第九十六分公司",
        "address": "北投區明德路114號",
        "address_for_geocode": "台北市北投區明德路114號",
        "latitude": 25.109857,
        "longitude": 121.5202
    },
    {
        "公司名稱": "統一超商股份有限公司",
        "分公司名稱": "台北巿第九十八分公司",
        "address": "東園街六九號",
        "address_for_geocode": "台北市東園街六九號",
        "latitude": 25.026071,
        "longitude": 121.496496
    },
    {
        "公司名稱": "統一超商股份有限公司",
        "分公司名稱": "台北市第１０４分公司",
        "address": "文山區木新路二段255號",
        "address_for_geocode": "台北市文山區木新路二段255號",
        "latitude": 24.983142,
        "longitude": 121.566657
    },
    {
        "公司名稱": "統一超商股份有限公司",
        "分公司名稱": "台北巿第１０６分公司",
        "address": "士林區天母西路39之1號",
        "address_for_geocode": "台北市士林區天母西路39之1號",
        "latitude": 25.11851,
        "longitude": 121.527407
    },
    {
        "公司名稱": "統一超商股份有限公司",
        "分公司名稱": "台北巿第１０８分公司",
        "address": "文山區木柵路2段157號",
        "address_for_geocode": "台北市文山區木柵路2段157號",
        "latitude": 24.989107,
        "longitude": 121.562918
    },
    {
        "公司名稱": "統一超商股份有限公司",
        "分公司名稱": "台北巿第１０９分公司",
        "address": "中山區龍江路281-1號",
        "address_for_geocode": "台北市中山區龍江路281-1號",
        "latitude": 25.060145,
        "longitude": 121.540846
    },
    {
        "公司名稱": "統一超商股份有限公司",
        "分公司名稱": "台北巿第１１０分公司",
        "address": "大安區瑞安街182號",
        "address_for_geocode": "台北市大安區瑞安街182號",
        "latitude": 25.028552,
        "longitude": 121.541016
    },
    {
        "公司名稱": "統一超商股份有限公司",
        "分公司名稱": "台北巿第１１３分公司",
        "address": "中正區寧波西街3號",
        "address_for_geocode": "台北市中正區寧波西街3號",
        "latitude": 25.031491,
        "longitude": 121.518705
    },
    {
        "公司名稱": "統一超商股份有限公司",
        "分公司名稱": "臺北巿第１１２分公司",
        "address": "忠孝東路４段５００號",
        "address_for_geocode": "台北市忠孝東路４段５００號",
        "latitude": 25.040967,
        "longitude": 121.5617
    },
    {
        "公司名稱": "統一超商股份有限公司",
        "分公司名稱": "台北巿第１１７分公司",
        "address": "士林區仰德大道三段68號",
        "address_for_geocode": "台北市士林區仰德大道三段68號",
        "latitude": 25.118847,
        "longitude": 121.552867
    },
    {
        "公司名稱": "統一超商股份有限公司",
        "分公司名稱": "臺北巿第一一九分公司",
        "address": "大同區承德路三段60號",
        "address_for_geocode": "台北市大同區承德路三段60號",
        "latitude": 25.065323,
        "longitude": 121.518108
    },
    {
        "公司名稱": "統一超商股份有限公司",
        "分公司名稱": "台北巿第１２５分公司",
        "address": "文山區羅斯福路6段20號",
        "address_for_geocode": "台北市文山區羅斯福路6段20號",
        "latitude": 25.000029,
        "longitude": 121.53949
    },
    {
        "公司名稱": "統一超商股份有限公司",
        "分公司名稱": "台北市第１２６分公司",
        "address": "東湖路九十號",
        "address_for_geocode": "台北市東湖路九十號",
        "latitude": 25.068496,
        "longitude": 121.614864
    },
    {
        "公司名稱": "統一超商股份有限公司",
        "分公司名稱": "台北巿第１２９分公司",
        "address": "大安區延吉街237號",
        "address_for_geocode": "台北市大安區延吉街237號",
        "latitude": 25.036604,
        "longitude": 121.555692
    },
    {
        "公司名稱": "統一超商股份有限公司",
        "分公司名稱": "台北巿第１３４分公司",
        "address": "士林區至誠路二段31號",
        "address_for_geocode": "台北市士林區至誠路二段31號",
        "latitude": 25.10177,
        "longitude": 121.529354
    },
    {
        "公司名稱": "統一超商股份有限公司",
        "分公司名稱": "台北巿第１３６分公司",
        "address": "中正區汀州路一段127號",
        "address_for_geocode": "台北市中正區汀州路一段127號",
        "latitude": 25.028045,
        "longitude": 121.509527
    },
    {
        "公司名稱": "統一超商股份有限公司",
        "分公司名稱": "台北巿第一四二分公司",
        "address": "大安區敦化南路1段187巷29號",
        "address_for_geocode": "台北市大安區敦化南路1段187巷29號",
        "latitude": 25.042667,
        "longitude": 121.550673
    },
    {
        "公司名稱": "統一超商股份有限公司",
        "分公司名稱": "台北巿第１４３分公司",
        "address": "中山區龍江路322號",
        "address_for_geocode": "台北市中山區龍江路322號",
        "latitude": 25.064848,
        "longitude": 121.540829
    },
    {
        "公司名稱": "統一超商股份有限公司",
        "分公司名稱": "台北市第一四四分公司",
        "address": "中山區北安路六二一巷四八號",
        "address_for_geocode": "台北市中山區北安路六二一巷四八號",
        "latitude": 25.082833,
        "longitude": 121.546484
    },
    {
        "公司名稱": "統一超商股份有限公司",
        "分公司名稱": "台北巿第１４７分公司",
        "address": "中山區八德路二段282號",
        "address_for_geocode": "台北市中山區八德路二段282號",
        "latitude": 25.046904,
        "longitude": 121.541697
    },
    {
        "公司名稱": "統一超商股份有限公司",
        "分公司名稱": "台北巿第８３分公司",
        "address": "延吉街１３１巷十九號",
        "address_for_geocode": "台北市延吉街１３１巷十九號",
        "latitude": 25.042802,
        "longitude": 121.555062
    },
    {
        "公司名稱": "統一超商股份有限公司",
        "分公司名稱": "台北市第１４８分公司",
        "address": "文山區指南路二段99號",
        "address_for_geocode": "台北市文山區指南路二段99號",
        "latitude": 24.987793,
        "longitude": 121.575537
    },
    {
        "公司名稱": "統一超商股份有限公司",
        "分公司名稱": "台北巿第１４９分公司",
        "address": "西園路二段１２８號",
        "address_for_geocode": "台北市西園路二段１２８號",
        "latitude": 25.030526,
        "longitude": 121.496334
    },
    {
        "公司名稱": "統一超商股份有限公司",
        "分公司名稱": "台北市第一五０分公司",
        "address": "中正區汀州路二段210號",
        "address_for_geocode": "台北市中正區汀州路二段210號",
        "latitude": 25.022405,
        "longitude": 121.523667
    },
    {
        "公司名稱": "統一超商股份有限公司",
        "分公司名稱": "台北市第一五一分公司",
        "address": "文山區忠順街二段10號",
        "address_for_geocode": "台北市文山區忠順街二段10號",
        "latitude": 24.984513,
        "longitude": 121.562365
    },
    {
        "公司名稱": "統一超商股份有限公司",
        "分公司名稱": "台北市第一五七分公司",
        "address": "大同區蘭州街135號",
        "address_for_geocode": "台北市大同區蘭州街135號",
        "latitude": 25.065723,
        "longitude": 121.515786
    },
    {
        "公司名稱": "統一超商股份有限公司",
        "分公司名稱": "台北巿第１６０分公司",
        "address": "大安區建國南路二段151巷6號",
        "address_for_geocode": "台北市大安區建國南路二段151巷6號",
        "latitude": 25.028691,
        "longitude": 121.538267
    },
    {
        "公司名稱": "統一超商股份有限公司",
        "分公司名稱": "臺北巿第１６１分公司",
        "address": "南港區忠孝東路6段448號",
        "address_for_geocode": "台北市南港區忠孝東路6段448號",
        "latitude": 25.050262,
        "longitude": 121.593985
    },
    {
        "公司名稱": "統一超商股份有限公司",
        "分公司名稱": "台北市第一六三分公司",
        "address": "中山區復興北路六四號",
        "address_for_geocode": "台北市中山區復興北路六四號",
        "latitude": 25.050533,
        "longitude": 121.543788
    },
    {
        "公司名稱": "統一超商股份有限公司",
        "分公司名稱": "臺北巿第１６６分公司",
        "address": "文山區景興路113號",
        "address_for_geocode": "台北市文山區景興路113號",
        "latitude": 24.99485,
        "longitude": 121.544775
    },
    {
        "公司名稱": "統一超商股份有限公司",
        "分公司名稱": "臺北巿第１６７分公司",
        "address": "大同區長安西路271號",
        "address_for_geocode": "台北市大同區長安西路271號",
        "latitude": 25.052135,
        "longitude": 121.510689
    },
    {
        "公司名稱": "統一超商股份有限公司",
        "分公司名稱": "台北巿第１６８分公司",
        "address": "北投區中和街476號",
        "address_for_geocode": "台北市北投區中和街476號",
        "latitude": 25.145284,
        "longitude": 121.495171
    },
    {
        "公司名稱": "統一超商股份有限公司",
        "分公司名稱": "臺北巿第１７０分公司",
        "address": "士林區大北路14號",
        "address_for_geocode": "台北市士林區大北路14號",
        "latitude": 25.089778,
        "longitude": 121.526591
    },
    {
        "公司名稱": "統一超商股份有限公司",
        "分公司名稱": "臺北巿第１７１分公司",
        "address": "士林區忠義街68號",
        "address_for_geocode": "台北市士林區忠義街68號",
        "latitude": 25.105882,
        "longitude": 121.531307
    },
    {
        "公司名稱": "統一超商股份有限公司",
        "分公司名稱": "台北巿第一七二分公司",
        "address": "萬華區萬青街168號",
        "address_for_geocode": "台北市萬華區萬青街168號",
        "latitude": 25.023519,
        "longitude": 121.501469
    },
    {
        "公司名稱": "統一超商股份有限公司",
        "分公司名稱": "台北巿第１７８分公司",
        "address": "大安區和平東路3段97號",
        "address_for_geocode": "台北市大安區和平東路3段97號",
        "latitude": 25.024613,
        "longitude": 121.550779
    },
    {
        "公司名稱": "統一超商股份有限公司",
        "分公司名稱": "臺北巿第１８０分公司",
        "address": "文山區木柵路2段88號",
        "address_for_geocode": "台北市文山區木柵路2段88號",
        "latitude": 24.988616,
        "longitude": 121.559924
    },
    {
        "公司名稱": "統一超商股份有限公司",
        "分公司名稱": "臺北巿第１８１分公司",
        "address": "萬華區漢中街51號",
        "address_for_geocode": "台北市萬華區漢中街51號",
        "latitude": 25.044114,
        "longitude": 121.507481
    },
    {
        "公司名稱": "統一超商股份有限公司",
        "分公司名稱": "台北巿第１８４分公司",
        "address": "大安區復興南路2段151巷41號",
        "address_for_geocode": "台北市大安區復興南路2段151巷41號",
        "latitude": 25.028456,
        "longitude": 121.545346
    },
    {
        "公司名稱": "統一超商股份有限公司",
        "分公司名稱": "臺北巿第１８５分公司",
        "address": "北投區自強街82號",
        "address_for_geocode": "台北市北投區自強街82號",
        "latitude": 25.110551,
        "longitude": 121.514609
    },
    {
        "公司名稱": "統一超商股份有限公司",
        "分公司名稱": "台北巿第１８７分公司",
        "address": "中正區汀州路3段249號",
        "address_for_geocode": "台北市中正區汀州路3段249號",
        "latitude": 25.013745,
        "longitude": 121.534308
    },
    {
        "公司名稱": "統一超商股份有限公司",
        "分公司名稱": "臺北巿第１９０分公司",
        "address": "大安區信義路二段２２４號",
        "address_for_geocode": "台北市大安區信義路二段２２４號",
        "latitude": 25.033451,
        "longitude": 121.531369
    },
    {
        "公司名稱": "統一超商股份有限公司",
        "分公司名稱": "台北巿第１９１分公司",
        "address": "大安區忠孝東路四段216巷27弄1號",
        "address_for_geocode": "台北市大安區忠孝東路四段216巷27弄1號",
        "latitude": 25.039954,
        "longitude": 121.5532
    },
    {
        "公司名稱": "統一超商股份有限公司",
        "分公司名稱": "台北巿第１９３分公司",
        "address": "大安區復興南路二段82-1號",
        "address_for_geocode": "台北市大安區復興南路二段82-1號",
        "latitude": 25.030902,
        "longitude": 121.543325
    },
    {
        "公司名稱": "統一超商股份有限公司",
        "分公司名稱": "臺北巿第１９４分公司",
        "address": "北投區知行路282號",
        "address_for_geocode": "台北市北投區知行路282號",
        "latitude": 25.121518,
        "longitude": 121.467463
    },
    {
        "公司名稱": "統一超商股份有限公司",
        "分公司名稱": "臺北巿第１９５分公司",
        "address": "內湖區內湖路一段445號",
        "address_for_geocode": "台北市內湖區內湖路一段445號",
        "latitude": 25.081237,
        "longitude": 121.572332
    },
    {
        "公司名稱": "統一超商股份有限公司",
        "分公司名稱": "臺北巿第１９６分公司",
        "address": "文山區指南路一段34號",
        "address_for_geocode": "台北市文山區指南路一段34號",
        "latitude": 24.987574,
        "longitude": 121.569662
    },
    {
        "公司名稱": "統一超商股份有限公司",
        "分公司名稱": "臺北巿第２００分公司",
        "address": "中山區龍江路４０３號",
        "address_for_geocode": "台北市中山區龍江路４０３號",
        "latitude": 25.06579,
        "longitude": 121.541056
    },
    {
        "公司名稱": "統一超商股份有限公司",
        "分公司名稱": "台北市第七八六分公司",
        "address": "萬華區東園街78號",
        "address_for_geocode": "台北市萬華區東園街78號",
        "latitude": 25.024987,
        "longitude": 121.496833
    },
    {
        "公司名稱": "統一超商股份有限公司",
        "分公司名稱": "台北市第七八九分公司",
        "address": "士林區中山北路7段141巷6-1號",
        "address_for_geocode": "台北市士林區中山北路7段141巷6-1號",
        "latitude": 25.123244,
        "longitude": 121.531525
    },
    {
        "公司名稱": "統一超商股份有限公司",
        "分公司名稱": "台北市第七九０分公司",
        "address": "士林區延平北路五段228號",
        "address_for_geocode": "台北市士林區延平北路五段228號",
        "latitude": 25.084193,
        "longitude": 121.51004
    },
    {
        "公司名稱": "統一超商股份有限公司",
        "分公司名稱": "台北市第七八八分公司",
        "address": "松山區八德路二段366巷7號",
        "address_for_geocode": "台北市松山區八德路二段366巷7號",
        "latitude": 25.047727,
        "longitude": 121.546033
    },
    {
        "公司名稱": "統一超商股份有限公司",
        "分公司名稱": "台北市第七九二分公司",
        "address": "松山區八德路四段697號",
        "address_for_geocode": "台北市松山區八德路四段697號",
        "latitude": 25.050205,
        "longitude": 121.576578
    },
    {
        "公司名稱": "統一超商股份有限公司",
        "分公司名稱": "台北市第七九三分公司",
        "address": "大安區信義路三段178號",
        "address_for_geocode": "台北市大安區信義路三段178號",
        "latitude": 25.0332,
        "longitude": 121.542265
    },
    {
        "公司名稱": "統一超商股份有限公司",
        "分公司名稱": "台北市第七九七分公司",
        "address": "信義區松仁路162號",
        "address_for_geocode": "台北市信義區松仁路162號",
        "latitude": 25.028386,
        "longitude": 121.568208
    },
    {
        "公司名稱": "統一超商股份有限公司",
        "分公司名稱": "台北市第七九六分公司",
        "address": "松山區民生東路三段130巷2之1號",
        "address_for_geocode": "台北市松山區民生東路三段130巷2之1號",
        "latitude": 25.057453,
        "longitude": 121.546098
    },
    {
        "公司名稱": "統一超商股份有限公司",
        "分公司名稱": "台北市第七九八分公司",
        "address": "大同區延平北路一段87號",
        "address_for_geocode": "台北市大同區延平北路一段87號",
        "latitude": 25.05176,
        "longitude": 121.511983
    },
    {
        "公司名稱": "統一超商股份有限公司",
        "分公司名稱": "台北市第七九九分公司",
        "address": "信義區松信路148號",
        "address_for_geocode": "台北市信義區松信路148號",
        "latitude": 25.043683,
        "longitude": 121.571879
    },
    {
        "公司名稱": "統一超商股份有限公司",
        "分公司名稱": "台北市第八五七分公司",
        "address": "士林區天母東路8巷39號",
        "address_for_geocode": "台北市士林區天母東路8巷39號",
        "latitude": 25.11642,
        "longitude": 121.53156
    },
    {
        "公司名稱": "統一超商股份有限公司",
        "分公司名稱": "台北市第八五九分公司",
        "address": "中正區館前路59號",
        "address_for_geocode": "台北市中正區館前路59號",
        "latitude": 25.044769,
        "longitude": 121.515126
    },
    {
        "公司名稱": "統一超商股份有限公司",
        "分公司名稱": "台北市第八六五分公司",
        "address": "松山區延吉街27之1號",
        "address_for_geocode": "台北市松山區延吉街27之1號",
        "latitude": 25.045976,
        "longitude": 121.553674
    },
    {
        "公司名稱": "統一超商股份有限公司",
        "分公司名稱": "台北市第八六七分公司",
        "address": "內湖區五分街9號",
        "address_for_geocode": "台北市內湖區五分街9號",
        "latitude": 25.067739,
        "longitude": 121.612383
    },
    {
        "公司名稱": "統一超商股份有限公司",
        "分公司名稱": "台北市第八六六分公司",
        "address": "內湖區新湖二路329號",
        "address_for_geocode": "台北市內湖區新湖二路329號",
        "latitude": 25.064549,
        "longitude": 121.583185
    },
    {
        "公司名稱": "統一超商股份有限公司",
        "分公司名稱": "台北市第九三一分公司",
        "address": "萬華區西園路一段278號",
        "address_for_geocode": "台北市萬華區西園路一段278號",
        "latitude": 25.03388,
        "longitude": 121.499306
    },
    {
        "公司名稱": "統一超商股份有限公司",
        "分公司名稱": "台北市第九三二分公司",
        "address": "士林區大東路35號",
        "address_for_geocode": "台北市士林區大東路35號",
        "latitude": 25.089475,
        "longitude": 121.525234
    },
    {
        "公司名稱": "統一超商股份有限公司",
        "分公司名稱": "台北市第九三三分公司",
        "address": "大安區忠孝東路四段313號",
        "address_for_geocode": "台北市大安區忠孝東路四段313號",
        "latitude": 25.041595,
        "longitude": 121.555862
    },
    {
        "公司名稱": "統一超商股份有限公司",
        "分公司名稱": "台北市第九三四分公司",
        "address": "內湖區瑞光路583巷30號",
        "address_for_geocode": "台北市內湖區瑞光路583巷30號",
        "latitude": 25.080769,
        "longitude": 121.568283
    },
    {
        "公司名稱": "統一超商股份有限公司",
        "分公司名稱": "台北市第九三六分公司",
        "address": "內湖區新湖二路160號",
        "address_for_geocode": "台北市內湖區新湖二路160號",
        "latitude": 25.062925,
        "longitude": 121.579607
    },
    {
        "公司名稱": "統一超商股份有限公司",
        "分公司名稱": "台北市第九三七分公司",
        "address": "大安區光復南路98-3號",
        "address_for_geocode": "台北市大安區光復南路98-3號",
        "latitude": 25.044104,
        "longitude": 121.557517
    },
    {
        "公司名稱": "統一超商股份有限公司",
        "分公司名稱": "台北市第九０三分公司",
        "address": "文山區木柵路1段284號",
        "address_for_geocode": "台北市文山區木柵路1段284號",
        "latitude": 24.988046,
        "longitude": 121.554993
    },
    {
        "公司名稱": "統一超商股份有限公司",
        "分公司名稱": "台北市第九三八分公司",
        "address": "中正區新生南路一段170巷14-3號",
        "address_for_geocode": "台北市中正區新生南路一段170巷14-3號",
        "latitude": 25.03419,
        "longitude": 121.531253
    },
    {
        "公司名稱": "統一超商股份有限公司",
        "分公司名稱": "台北市第九三九分公司",
        "address": "中山區林森北路624號",
        "address_for_geocode": "台北市中山區林森北路624號",
        "latitude": 25.067268,
        "longitude": 121.525603
    },
    {
        "公司名稱": "統一超商股份有限公司",
        "分公司名稱": "台北市第九四０分公司",
        "address": "中山區南京東路二段100號",
        "address_for_geocode": "台北市中山區南京東路二段100號",
        "latitude": 25.051857,
        "longitude": 121.531864
    },
    {
        "公司名稱": "統一超商股份有限公司",
        "分公司名稱": "台北市第九四三分公司",
        "address": "大安區仁愛路四段151巷33號",
        "address_for_geocode": "台北市大安區仁愛路四段151巷33號",
        "latitude": 25.040086,
        "longitude": 121.551972
    },
    {
        "公司名稱": "統一超商股份有限公司",
        "分公司名稱": "台北市第九四二分公司",
        "address": "大同區迪化街一段13號",
        "address_for_geocode": "台北市大同區迪化街一段13號",
        "latitude": 25.054186,
        "longitude": 121.510194
    },
    {
        "公司名稱": "統一超商股份有限公司",
        "分公司名稱": "台北市第九四四分公司",
        "address": "南港區經貿二路2號",
        "address_for_geocode": "台北市南港區經貿二路2號",
        "latitude": 25.056311,
        "longitude": 121.616344
    },
    {
        "公司名稱": "統一超商股份有限公司",
        "分公司名稱": "台北市第九四五分公司",
        "address": "信義區永吉里松山路11號",
        "address_for_geocode": "台北市信義區永吉里松山路11號",
        "latitude": 25.048456,
        "longitude": 121.578252
    },
    {
        "公司名稱": "統一超商股份有限公司",
        "分公司名稱": "台北市第九五四分公司",
        "address": "士林區延平北路六段229號",
        "address_for_geocode": "台北市士林區延平北路六段229號",
        "latitude": 25.089296,
        "longitude": 121.505077
    },
    {
        "公司名稱": "統一超商股份有限公司",
        "分公司名稱": "台北市第九五五分公司",
        "address": "松山區南京東路五段291巷4-1號",
        "address_for_geocode": "台北市松山區南京東路五段291巷4-1號",
        "latitude": 25.051833,
        "longitude": 121.566076
    },
    {
        "公司名稱": "統一超商股份有限公司",
        "分公司名稱": "台北市第九五六分公司",
        "address": "南港區忠孝東路七段299號",
        "address_for_geocode": "台北市南港區忠孝東路七段299號",
        "latitude": 25.052363,
        "longitude": 121.604793
    },
    {
        "公司名稱": "統一超商股份有限公司",
        "分公司名稱": "台北市第九０四分公司",
        "address": "中正區同安街62號",
        "address_for_geocode": "台北市中正區同安街62號",
        "latitude": 25.023361,
        "longitude": 121.521069
    },
    {
        "公司名稱": "統一超商股份有限公司",
        "分公司名稱": "台北市第九五七分公司",
        "address": "大安區復興南路2段271巷2號",
        "address_for_geocode": "台北市大安區復興南路2段271巷2號",
        "latitude": 25.025691,
        "longitude": 121.543891
    },
    {
        "公司名稱": "統一超商股份有限公司",
        "分公司名稱": "台北市第九五九分公司",
        "address": "南港區南港路3段3號",
        "address_for_geocode": "台北市南港區南港路3段3號",
        "latitude": 25.054044,
        "longitude": 121.592162
    },
    {
        "公司名稱": "統一超商股份有限公司",
        "分公司名稱": "台北市第九六０分公司",
        "address": "中山區敬業四路1號",
        "address_for_geocode": "台北市中山區敬業四路1號",
        "latitude": 25.08031,
        "longitude": 121.558379
    },
    {
        "公司名稱": "統一超商股份有限公司",
        "分公司名稱": "台北市第五五九分公司",
        "address": "士林區中正路235巷14號",
        "address_for_geocode": "台北市士林區中正路235巷14號",
        "latitude": 25.09477,
        "longitude": 121.526058
    },
    {
        "公司名稱": "統一超商股份有限公司",
        "分公司名稱": "台北市第五六一分公司",
        "address": "大安區忠孝東路三段一六０號",
        "address_for_geocode": "台北市大安區忠孝東路三段一六０號",
        "latitude": 25.041466,
        "longitude": 121.538346
    },
    {
        "公司名稱": "統一超商股份有限公司",
        "分公司名稱": "台北市第六十分公司",
        "address": "大安區辛亥路三段157巷32號",
        "address_for_geocode": "台北市大安區辛亥路三段157巷32號",
        "latitude": 25.018096,
        "longitude": 121.550685
    },
    {
        "公司名稱": "統一超商股份有限公司",
        "分公司名稱": "台北市第五六三分公司",
        "address": "萬華區寶興街184號",
        "address_for_geocode": "台北市萬華區寶興街184號",
        "latitude": 25.023778,
        "longitude": 121.495271
    },
    {
        "公司名稱": "統一超商股份有限公司",
        "分公司名稱": "台北市第五六五分公司",
        "address": "士林區承德路四段39號",
        "address_for_geocode": "台北市士林區承德路四段39號",
        "latitude": 25.081098,
        "longitude": 121.522891
    },
    {
        "公司名稱": "統一超商股份有限公司",
        "分公司名稱": "台北市第五十三分公司",
        "address": "中山區中山北路三段23之6號",
        "address_for_geocode": "台北市中山區中山北路三段23之6號",
        "latitude": 25.064034,
        "longitude": 121.521953
    },
    {
        "公司名稱": "統一超商股份有限公司",
        "分公司名稱": "台北市第五六七分公司",
        "address": "內湖區康寧路一段一六０號",
        "address_for_geocode": "台北市內湖區康寧路一段一六０號",
        "latitude": 25.078993,
        "longitude": 121.594377
    },
    {
        "公司名稱": "統一超商股份有限公司",
        "分公司名稱": "台北市第五七０分公司",
        "address": "大安區延吉街七十二號",
        "address_for_geocode": "台北市大安區延吉街七十二號",
        "latitude": 25.042533,
        "longitude": 121.554111
    },
    {
        "公司名稱": "統一超商股份有限公司",
        "分公司名稱": "台北市第五七一分公司",
        "address": "大安區東豐街43號",
        "address_for_geocode": "台北市大安區東豐街43號",
        "latitude": 25.036131,
        "longitude": 121.54663
    },
    {
        "公司名稱": "統一超商股份有限公司",
        "分公司名稱": "台北市第五七二分公司",
        "address": "大安區辛亥路2段171巷8號",
        "address_for_geocode": "台北市大安區辛亥路2段171巷8號",
        "latitude": 25.022097,
        "longitude": 121.540992
    },
    {
        "公司名稱": "統一超商股份有限公司",
        "分公司名稱": "台北市第一一六分公司",
        "address": "中正區光復里延平南路四十七號",
        "address_for_geocode": "台北市中正區光復里延平南路四十七號",
        "latitude": 25.044977,
        "longitude": 121.510509
    },
    {
        "公司名稱": "統一超商股份有限公司",
        "分公司名稱": "台北市第三七八分公司",
        "address": "信義區松德路二七一號",
        "address_for_geocode": "台北市信義區松德路二七一號",
        "latitude": 25.032879,
        "longitude": 121.574764
    },
    {
        "公司名稱": "統一超商股份有限公司",
        "分公司名稱": "台北市第二十二分公司",
        "address": "大同區延平北路三段61-4號",
        "address_for_geocode": "台北市大同區延平北路三段61-4號",
        "latitude": 25.065804,
        "longitude": 121.511139
    },
    {
        "公司名稱": "統一超商股份有限公司",
        "分公司名稱": "台北市第五三九分公司",
        "address": "文山區興業里興隆路二段244巷20號",
        "address_for_geocode": "台北市文山區興業里興隆路二段244巷20號",
        "latitude": 25.000117,
        "longitude": 121.553188
    },
    {
        "公司名稱": "統一超商股份有限公司",
        "分公司名稱": "台北市第四八０分公司",
        "address": "中山區八德路二段314號",
        "address_for_geocode": "台北市中山區八德路二段314號",
        "latitude": 25.04718,
        "longitude": 121.542836
    },
    {
        "公司名稱": "統一超商股份有限公司",
        "分公司名稱": "台北市第四四０分公司",
        "address": "中山區遼寧街110號",
        "address_for_geocode": "台北市中山區遼寧街110號",
        "latitude": 25.05258,
        "longitude": 121.541995
    },
    {
        "公司名稱": "統一超商股份有限公司",
        "分公司名稱": "台北市第五三四分公司",
        "address": "文山區景華里景興路14號",
        "address_for_geocode": "台北市文山區景華里景興路14號",
        "latitude": 24.997873,
        "longitude": 121.544549
    },
    {
        "公司名稱": "統一超商股份有限公司",
        "分公司名稱": "台北市第五八０分公司",
        "address": "文山區興光里興隆路三段173號",
        "address_for_geocode": "台北市文山區興光里興隆路三段173號",
        "latitude": 24.996429,
        "longitude": 121.560143
    },
    {
        "公司名稱": "統一超商股份有限公司",
        "分公司名稱": "台北市第五八一分公司",
        "address": "大同區延平北路四段16號",
        "address_for_geocode": "台北市大同區延平北路四段16號",
        "latitude": 25.069097,
        "longitude": 121.510776
    },
    {
        "公司名稱": "統一超商股份有限公司",
        "分公司名稱": "台北市第四七三分公司",
        "address": "士林區天母東路8巷96號",
        "address_for_geocode": "台北市士林區天母東路8巷96號",
        "latitude": 25.114357,
        "longitude": 121.530147
    },
    {
        "公司名稱": "統一超商股份有限公司",
        "分公司名稱": "台北市第五八四分公司",
        "address": "中山區長春路182號",
        "address_for_geocode": "台北市中山區長春路182號",
        "latitude": 25.054678,
        "longitude": 121.534545
    },
    {
        "公司名稱": "統一超商股份有限公司",
        "分公司名稱": "台北市第八十八分公司",
        "address": "內湖區紫雲里星雲街136號",
        "address_for_geocode": "台北市內湖區紫雲里星雲街136號",
        "latitude": 25.079835,
        "longitude": 121.595023
    },
    {
        "公司名稱": "統一超商股份有限公司",
        "分公司名稱": "台北市第五八五分公司",
        "address": "文山區萬年里羅斯福路五段170巷33號",
        "address_for_geocode": "台北市文山區萬年里羅斯福路五段170巷33號",
        "latitude": 25.004627,
        "longitude": 121.536653
    },
    {
        "公司名稱": "統一超商股份有限公司",
        "分公司名稱": "台北市第五八七分公司",
        "address": "中正區羅斯福路3段80號",
        "address_for_geocode": "台北市中正區羅斯福路3段80號",
        "latitude": 25.021986,
        "longitude": 121.526367
    },
    {
        "公司名稱": "統一超商股份有限公司",
        "分公司名稱": "台北市第五八八分公司",
        "address": "內湖區內湖路1段737巷35號",
        "address_for_geocode": "台北市內湖區內湖路1段737巷35號",
        "latitude": 25.079799,
        "longitude": 121.578793
    },
    {
        "公司名稱": "統一超商股份有限公司",
        "分公司名稱": "台北市第三八七分公司",
        "address": "萬華區富民里廣州街148號",
        "address_for_geocode": "台北市萬華區富民里廣州街148號",
        "latitude": 25.036571,
        "longitude": 121.50059
    },
    {
        "公司名稱": "統一超商股份有限公司",
        "分公司名稱": "台北市第一二一分公司",
        "address": "松山區塔悠路31號",
        "address_for_geocode": "台北市松山區塔悠路31號",
        "latitude": 25.050692,
        "longitude": 121.571616
    },
    {
        "公司名稱": "統一超商股份有限公司",
        "分公司名稱": "台北市第五七七分公司",
        "address": "松山區撫遠街197號",
        "address_for_geocode": "台北市松山區撫遠街197號",
        "latitude": 25.059813,
        "longitude": 121.5681
    },
    {
        "公司名稱": "統一超商股份有限公司",
        "分公司名稱": "台北市第四一六分公司",
        "address": "文山區萬芳里萬和街6號",
        "address_for_geocode": "台北市文山區萬芳里萬和街6號",
        "latitude": 25.001933,
        "longitude": 121.567363
    },
    {
        "公司名稱": "統一超商股份有限公司",
        "分公司名稱": "台北市第五九二分公司",
        "address": "內湖區星雲街17號",
        "address_for_geocode": "台北市內湖區星雲街17號",
        "latitude": 25.078124,
        "longitude": 121.590538
    },
    {
        "公司名稱": "統一超商股份有限公司",
        "分公司名稱": "台北市第一七四分公司",
        "address": "南港區福德街373巷25號",
        "address_for_geocode": "台北市南港區福德街373巷25號",
        "latitude": 25.039352,
        "longitude": 121.59176
    },
    {
        "公司名稱": "統一超商股份有限公司",
        "分公司名稱": "台北市第五七五分公司",
        "address": "松山區健康路11號",
        "address_for_geocode": "台北市松山區健康路11號",
        "latitude": 25.053245,
        "longitude": 121.552451
    },
    {
        "公司名稱": "統一超商股份有限公司",
        "分公司名稱": "台北市第五五八分公司",
        "address": "中正區濟南路二段50號",
        "address_for_geocode": "台北市中正區濟南路二段50號",
        "latitude": 25.040241,
        "longitude": 121.531243
    },
    {
        "公司名稱": "統一超商股份有限公司",
        "分公司名稱": "台北市第六０一分公司",
        "address": "松山區復興北路179號",
        "address_for_geocode": "台北市松山區復興北路179號",
        "latitude": 25.054336,
        "longitude": 121.544307
    },
    {
        "公司名稱": "統一超商股份有限公司",
        "分公司名稱": "台北市第六０二分公司",
        "address": "松山區延壽街323號",
        "address_for_geocode": "台北市松山區延壽街323號",
        "latitude": 25.0568,
        "longitude": 121.560537
    },
    {
        "公司名稱": "統一超商股份有限公司",
        "分公司名稱": "台北市第六０四分公司",
        "address": "中山區錦西街16號",
        "address_for_geocode": "台北市中山區錦西街16號",
        "latitude": 25.060251,
        "longitude": 121.521257
    },
    {
        "公司名稱": "統一超商股份有限公司",
        "分公司名稱": "台北市第六０五分公司",
        "address": "大安區敦化南路二段63巷7號",
        "address_for_geocode": "台北市大安區敦化南路二段63巷7號",
        "latitude": 25.03109,
        "longitude": 121.549482
    },
    {
        "公司名稱": "統一超商股份有限公司",
        "分公司名稱": "台北市第六０六分公司",
        "address": "文山區景行里羅斯福路六段391號",
        "address_for_geocode": "台北市文山區景行里羅斯福路六段391號",
        "latitude": 24.992275,
        "longitude": 121.540804
    },
    {
        "公司名稱": "統一超商股份有限公司",
        "分公司名稱": "台北市第六０七分公司",
        "address": "萬華區忠德里東園街28巷56號",
        "address_for_geocode": "台北市萬華區忠德里東園街28巷56號",
        "latitude": 25.026205,
        "longitude": 121.494452
    },
    {
        "公司名稱": "統一超商股份有限公司",
        "分公司名稱": "台北市第六０八分公司",
        "address": "萬華區西藏路125巷17號",
        "address_for_geocode": "台北市萬華區西藏路125巷17號",
        "latitude": 25.028074,
        "longitude": 121.502496
    },
    {
        "公司名稱": "統一超商股份有限公司",
        "分公司名稱": "台北市第六０九分公司",
        "address": "信義區光復南路419巷41號",
        "address_for_geocode": "台北市信義區光復南路419巷41號",
        "latitude": 25.036588,
        "longitude": 121.55848
    },
    {
        "公司名稱": "統一超商股份有限公司",
        "分公司名稱": "台北市第五一六分公司",
        "address": "大同區延平北路四段157號",
        "address_for_geocode": "台北市大同區延平北路四段157號",
        "latitude": 25.073104,
        "longitude": 121.511394
    },
    {
        "公司名稱": "統一超商股份有限公司",
        "分公司名稱": "台北市第三十分公司",
        "address": "松山區南京東路五段334號",
        "address_for_geocode": "台北市松山區南京東路五段334號",
        "latitude": 25.051119,
        "longitude": 121.568745
    },
    {
        "公司名稱": "統一超商股份有限公司",
        "分公司名稱": "台北市第一九二分公司",
        "address": "中山區建國北路三段89號",
        "address_for_geocode": "台北市中山區建國北路三段89號",
        "latitude": 25.065651,
        "longitude": 121.536816
    },
    {
        "公司名稱": "統一超商股份有限公司",
        "分公司名稱": "台北市第一九七分公司",
        "address": "士林區承德路四段30號",
        "address_for_geocode": "台北市士林區承德路四段30號",
        "latitude": 25.080465,
        "longitude": 121.522034
    },
    {
        "公司名稱": "統一超商股份有限公司",
        "分公司名稱": "台北市第五二五分公司",
        "address": "中山區松江路208號",
        "address_for_geocode": "台北市中山區松江路208號",
        "latitude": 25.057644,
        "longitude": 121.532908
    },
    {
        "公司名稱": "統一超商股份有限公司",
        "分公司名稱": "台北市第一二四分公司",
        "address": "中山區北安路839-1號",
        "address_for_geocode": "台北市中山區北安路839-1號",
        "latitude": 25.084695,
        "longitude": 121.557465
    },
    {
        "公司名稱": "統一超商股份有限公司",
        "分公司名稱": "台北市第三六三分公司",
        "address": "大安區光復南路180巷12號",
        "address_for_geocode": "台北市大安區光復南路180巷12號",
        "latitude": 25.042624,
        "longitude": 121.556897
    },
    {
        "公司名稱": "統一超商股份有限公司",
        "分公司名稱": "台北市第一七七分公司",
        "address": "萬華區萬大路292號",
        "address_for_geocode": "台北市萬華區萬大路292號",
        "latitude": 25.025273,
        "longitude": 121.500292
    },
    {
        "公司名稱": "統一超商股份有限公司",
        "分公司名稱": "台北市第二四三分公司",
        "address": "信義區莊敬路178巷2號",
        "address_for_geocode": "台北市信義區莊敬路178巷2號",
        "latitude": 25.031238,
        "longitude": 121.561032
    },
    {
        "公司名稱": "統一超商股份有限公司",
        "分公司名稱": "台北市第一七六分公司",
        "address": "南港區聯成里昆陽街150-1號",
        "address_for_geocode": "台北市南港區聯成里昆陽街150-1號",
        "latitude": 25.049187,
        "longitude": 121.59419
    },
    {
        "公司名稱": "統一超商股份有限公司",
        "分公司名稱": "台北市第六一四分公司",
        "address": "中山區長春路257號",
        "address_for_geocode": "台北市中山區長春路257號",
        "latitude": 25.054771,
        "longitude": 121.540665
    },
    {
        "公司名稱": "統一超商股份有限公司",
        "分公司名稱": "台北市第六一三分公司",
        "address": "大安區通化里光復南路616號",
        "address_for_geocode": "台北市大安區通化里光復南路616號",
        "latitude": 25.03225,
        "longitude": 121.557291
    },
    {
        "公司名稱": "統一超商股份有限公司",
        "分公司名稱": "台北市第六一六分公司",
        "address": "中山區南京東路一段132巷8號",
        "address_for_geocode": "台北市中山區南京東路一段132巷8號",
        "latitude": 25.051332,
        "longitude": 121.527032
    },
    {
        "公司名稱": "統一超商股份有限公司",
        "分公司名稱": "台北市第六一八分公司",
        "address": "內湖區瑞光路580號",
        "address_for_geocode": "台北市內湖區瑞光路580號",
        "latitude": 25.080059,
        "longitude": 121.566464
    },
    {
        "公司名稱": "統一超商股份有限公司",
        "分公司名稱": "台北市第六二０分公司",
        "address": "內湖區康樂街213號",
        "address_for_geocode": "台北市內湖區康樂街213號",
        "latitude": 25.075771,
        "longitude": 121.622087
    },
    {
        "公司名稱": "統一超商股份有限公司",
        "分公司名稱": "台北市第六二五分公司",
        "address": "中正區臨沂街74號",
        "address_for_geocode": "台北市中正區臨沂街74號",
        "latitude": 25.034526,
        "longitude": 121.527802
    },
    {
        "公司名稱": "統一超商股份有限公司",
        "分公司名稱": "台北市第六二七分公司",
        "address": "大安區樂業街71號",
        "address_for_geocode": "台北市大安區樂業街71號",
        "latitude": 25.021964,
        "longitude": 121.550911
    },
    {
        "公司名稱": "統一超商股份有限公司",
        "分公司名稱": "台北市第六二八分公司",
        "address": "信義區松德路200巷10號",
        "address_for_geocode": "台北市信義區松德路200巷10號",
        "latitude": 25.034853,
        "longitude": 121.573784
    },
    {
        "公司名稱": "統一超商股份有限公司",
        "分公司名稱": "台北市第九十二分公司",
        "address": "北投區中和街10號",
        "address_for_geocode": "台北市北投區中和街10號",
        "latitude": 25.137562,
        "longitude": 121.503445
    },
    {
        "公司名稱": "統一超商股份有限公司",
        "分公司名稱": "台北市第六二九分公司",
        "address": "北投區文林北路98號",
        "address_for_geocode": "台北市北投區文林北路98號",
        "latitude": 25.105629,
        "longitude": 121.517655
    },
    {
        "公司名稱": "統一超商股份有限公司",
        "分公司名稱": "台北市第六三一分公司",
        "address": "南港區成福里成福路145號",
        "address_for_geocode": "台北市南港區成福里成福路145號",
        "latitude": 25.04154,
        "longitude": 121.587861
    },
    {
        "公司名稱": "統一超商股份有限公司",
        "分公司名稱": "台北市第一三五分公司",
        "address": "文山區樟新里木新路三段276號",
        "address_for_geocode": "台北市文山區樟新里木新路三段276號",
        "latitude": 24.981214,
        "longitude": 121.558121
    },
    {
        "公司名稱": "統一超商股份有限公司",
        "分公司名稱": "台北市第六三二分公司",
        "address": "中正區永功里11鄰汀州路一段285號",
        "address_for_geocode": "台北市中正區永功里11鄰汀州路一段285號",
        "latitude": 25.026353,
        "longitude": 121.513805
    },
    {
        "公司名稱": "統一超商股份有限公司",
        "分公司名稱": "台北市第六三四分公司",
        "address": "大安區忠孝東路四段223巷42號",
        "address_for_geocode": "台北市大安區忠孝東路四段223巷42號",
        "latitude": 25.043543,
        "longitude": 121.55311
    },
    {
        "公司名稱": "統一超商股份有限公司",
        "分公司名稱": "台北市第六三八分公司",
        "address": "信義區永吉路278巷58弄2號",
        "address_for_geocode": "台北市信義區永吉路278巷58弄2號",
        "latitude": 25.04352,
        "longitude": 121.574046
    },
    {
        "公司名稱": "統一超商股份有限公司",
        "分公司名稱": "台北市第六四二分公司",
        "address": "松山區三民路115號",
        "address_for_geocode": "台北市松山區三民路115號",
        "latitude": 25.058138,
        "longitude": 121.563213
    },
    {
        "公司名稱": "統一超商股份有限公司",
        "分公司名稱": "台北市第六四三分公司",
        "address": "萬華區中華路二段602-1號",
        "address_for_geocode": "台北市萬華區中華路二段602-1號",
        "latitude": 25.024574,
        "longitude": 121.509911
    },
    {
        "公司名稱": "統一超商股份有限公司",
        "分公司名稱": "台北市第六四五分公司",
        "address": "中正區重慶南路一段1號",
        "address_for_geocode": "台北市中正區重慶南路一段1號",
        "latitude": 25.046793,
        "longitude": 121.513383
    },
    {
        "公司名稱": "統一超商股份有限公司",
        "分公司名稱": "台北市第二三五分公司",
        "address": "內湖區內湖路1段411巷17號",
        "address_for_geocode": "台北市內湖區內湖路1段411巷17號",
        "latitude": 25.082437,
        "longitude": 121.571274
    },
    {
        "公司名稱": "統一超商股份有限公司",
        "分公司名稱": "台北市第六四八分公司",
        "address": "信義區松山路455號",
        "address_for_geocode": "台北市信義區松山路455號",
        "latitude": 25.039807,
        "longitude": 121.578006
    },
    {
        "公司名稱": "統一超商股份有限公司",
        "分公司名稱": "台北市第一四一分公司",
        "address": "大同區重慶北路二段60號",
        "address_for_geocode": "台北市大同區重慶北路二段60號",
        "latitude": 25.05579,
        "longitude": 121.51382
    },
    {
        "公司名稱": "統一超商股份有限公司",
        "分公司名稱": "台北市第四七一分公司",
        "address": "中山區圓山里中山北路三段57號",
        "address_for_geocode": "台北市中山區圓山里中山北路三段57號",
        "latitude": 25.06828,
        "longitude": 121.523064
    },
    {
        "公司名稱": "統一超商股份有限公司",
        "分公司名稱": "台北市第三八０分公司",
        "address": "北投區湖山路一段12號",
        "address_for_geocode": "台北市北投區湖山路一段12號",
        "latitude": 25.152533,
        "longitude": 121.547463
    },
    {
        "公司名稱": "統一超商股份有限公司",
        "分公司名稱": "台北市第四七七分公司",
        "address": "松山區民生東路四段55巷10號",
        "address_for_geocode": "台北市松山區民生東路四段55巷10號",
        "latitude": 25.058357,
        "longitude": 121.550369
    },
    {
        "公司名稱": "統一超商股份有限公司",
        "分公司名稱": "台北市第六一一分公司",
        "address": "中正區黎明里忠孝西路一段33號",
        "address_for_geocode": "台北市中正區黎明里忠孝西路一段33號",
        "latitude": 25.046078,
        "longitude": 121.518762
    },
    {
        "公司名稱": "統一超商股份有限公司",
        "分公司名稱": "台北市第六五一分公司",
        "address": "士林區三玉里天母東路50巷25號",
        "address_for_geocode": "台北市士林區三玉里天母東路50巷25號",
        "latitude": 25.116783,
        "longitude": 121.533206
    },
    {
        "公司名稱": "統一超商股份有限公司",
        "分公司名稱": "台北市第四０五分公司",
        "address": "萬華區西門里昆明街81號",
        "address_for_geocode": "台北市萬華區西門里昆明街81號",
        "latitude": 25.042786,
        "longitude": 121.504857
    },
    {
        "公司名稱": "統一超商股份有限公司",
        "分公司名稱": "台北市第二五０分公司",
        "address": "士林區基河路1號",
        "address_for_geocode": "台北市士林區基河路1號",
        "latitude": 25.086376,
        "longitude": 121.524955
    },
    {
        "公司名稱": "統一超商股份有限公司",
        "分公司名稱": "台北市第六五三分公司",
        "address": "文山區木新路三段54號",
        "address_for_geocode": "台北市文山區木新路三段54號",
        "latitude": 24.98258,
        "longitude": 121.56408
    },
    {
        "公司名稱": "統一超商股份有限公司",
        "分公司名稱": "台北市第六五四分公司",
        "address": "信義區基隆路一段141號",
        "address_for_geocode": "台北市信義區基隆路一段141號",
        "latitude": 25.042983,
        "longitude": 121.565843
    },
    {
        "公司名稱": "統一超商股份有限公司",
        "分公司名稱": "台北市第六五二分公司",
        "address": "大安區通化街177號",
        "address_for_geocode": "台北市大安區通化街177號",
        "latitude": 25.027452,
        "longitude": 121.553582
    },
    {
        "公司名稱": "統一超商股份有限公司",
        "分公司名稱": "台北市第二八二分公司",
        "address": "松山區八德路四段686號",
        "address_for_geocode": "台北市松山區八德路四段686號",
        "latitude": 25.049876,
        "longitude": 121.576667
    },
    {
        "公司名稱": "統一超商股份有限公司",
        "分公司名稱": "台北市第四０七分公司",
        "address": "大安區復興南路二段203號",
        "address_for_geocode": "台北市大安區復興南路二段203號",
        "latitude": 25.026283,
        "longitude": 121.543668
    },